{"nike": [{"os_id": "VN2022065XJEX4K", "lon": 106.6842102, "lat": 11.0739129, "name": "ACode Sporting Goods Co., Ltd.", "address": "No 32 VSIP II A Street 31, Bac Tan Uyen, B\u00ecnh Duong, 822710", "country_code": "VN", "country_name": "Vietnam", "has_approved_claim": false, "is_closed": null}, {"os_id": "VN2019085XC3YBJ", "lon": 105.9022518, "lat": 20.1506752, "name": "ADORA FOOTWEAR LIMITED", "address": "TAM DIEP INDUSTRIAL ZONE TAM DIEP TOWN NINH BINH PROVINCE. ", "country_code": "VN", "country_name": "Vietnam", "has_approved_claim": false, "is_closed": null}, {"os_id": "VN2020070RKZ193", "lon": 106.937049, "lat": 10.8659901, "name": "A First Vina Co., Ltd", "address": "Road No.2,Tam Phuoc Industrial Zone, Bien Hoa City, Dong Nai Province", "country_code": "VN", "country_name": "Vietnam", "has_approved_claim": false, "is_closed": null}, {"os_id": "GE2019085FNZEPC", "lon": 41.66472450000001, "lat": 42.1738986, "name": "AJARA TEXTILE", "address": "31 MOTSERELIA STR. POTI SAMEGRELO-ZEMO SVANETI 4400", "country_code": "GE", "country_name": "Georgia", "has_approved_claim": false, "is_closed": null}, {"os_id": "GE2019098NA09EZ", "lon": 41.764543, "lat": 41.79286889999999, "name": "Ajara Textile Ltd.", "address": "Bobokvati Street No:14 ,Bobokvati Village, Kobuleti,Batumi,Ajaria,Georgia", "country_code": "GE", "country_name": "Georgia", "has_approved_claim": false, "is_closed": null}, {"os_id": "US2021139QW9MAM", "lon": -122.5750315, "lat": 45.5711345, "name": "A & K DESIGNS, INC.", "address": "8564 NE ALDERWOOD ROAD, PORTLAND, OREGON", "country_code": "US", "country_name": "United States", "has_approved_claim": false, "is_closed": null}, {"os_id": "VN2020053F0HQMV", "lon": 107.113007, "lat": 10.6032018, "name": "All Wells International Co., Ltd.", "address": "No. 81 Rd, Toc Tien Commune   790000", "country_code": "VN", "country_name": "Vietnam", "has_approved_claim": false, "is_closed": null}, {"os_id": "TR2019091AZWDQ5", "lon": 29.1902876, "lat": 40.1991355, "name": "Almaxtex Tekstil San. ve Tic. A.S.", "address": "Karapinar Mah. Ankara Yolu Cad. No. 900 Yildirim  Bursa 16580", "country_code": "TR", "country_name": "T\u00fcrkiye", "has_approved_claim": false, "is_closed": null}, {"os_id": "AR2020115FDPYCT", "lon": -58.5346738, "lat": -34.5762115, "name": "ANDBRAVA SRL", "address": "1650 GENERAL SAN MART\u00cdN, SAN MART\u00cdN, BUENOS AIRES, B1650, ARGENTINA", "country_code": "AR", "country_name": "Argentina", "has_approved_claim": false, "is_closed": null}, {"os_id": "CN2019085TFDES7", "lon": 115.934366, "lat": 31.72717, "name": "ANHUI COSMO SPORTING GOODS COMPANY LIMITED", "address": "ECONOMIC DEVELOPMENT ZONE, JINZHAI COUNTY LU'AN CITY ANHUI ", "country_code": "CN", "country_name": "China", "has_approved_claim": false, "is_closed": null}, {"os_id": "BR2019085DVH3KW", "lon": -51.0358504, "lat": -29.6621907, "name": "ANIGER CAL\u00c7ADOS SUPRIMENTOS E EMPREENDIMENTOS LTDA", "address": "RUA ARMINDO ELTZ, 51  - QUATRO COL\u00d4NIAS CAMPO BOM \u2013 RS RS 93700-000", "country_code": "BR", "country_name": "Brazil", "has_approved_claim": false, "is_closed": null}, {"os_id": "NI2019098QXQGFY", "lon": -86.1723148, "lat": 11.9036073, "name": "Annic II, S.A.", "address": "Zona Franca Las Palmeras,  ,Km. 45 Carretera Masatepe \u2013 San Marcos,Masatepe,,Masaya,Nicaragua", "country_code": "NI", "country_name": "Nicaragua", "has_approved_claim": false, "is_closed": null}, {"os_id": "NI2019085EEBP7M", "lon": -86.1471939, "lat": 11.9171458, "name": "ANNIC LLC", "address": "KM45 1/2, CARRETERA MASATEPE-SAN MARCOS, MASATEPE", "country_code": "NI", "country_name": "Nicaragua", "has_approved_claim": false, "is_closed": null}, {"os_id": "VN2019085FRJKDP", "lon": 105.7525331, "lat": 19.3990678, "name": "ANNORA VIETNAM FOOTWEAR", "address": "XUAN LAM COMMUNE (NGHI SON ECONOMIC ZONE) TINH GIA DISTRICT THAN HOA ", "country_code": "VN", "country_name": "Vietnam", "has_approved_claim": false, "is_closed": null}, {"os_id": "LK2019085D4KB43", "lon": 79.9428789, "lat": 6.7559625, "name": "ANTLER FABRIC PRINTERS (PVT) LTD", "address": "ANTLER COMPLEX 1 PILIYANDALA SRI LANKA 10300", "country_code": "LK", "country_name": "Sri Lanka", "has_approved_claim": false, "is_closed": null}, {"os_id": "HN2019085QS3PMC", "lon": -88.1830644, "lat": 15.3442178, "name": "ANVIL KNITWEAR HONDURAS", "address": "GREENVALLEY INDUSTRIAL PARK NACO QUIMISTAN SANTA BARBARA 22101", "country_code": "HN", "country_name": "Honduras", "has_approved_claim": false, "is_closed": null}, {"os_id": "US2019085ET9QX6", "lon": -80.5692767, "lat": 35.3839933, "name": "ARTFX CONCORD", "address": "244 MANOR AVE SW CONCORD NORTH CAROLINA 28025", "country_code": "US", "country_name": "United States", "has_approved_claim": false, "is_closed": null}, {"os_id": "US201908584Z3GZ", "lon": -76.2340615, "lat": 36.8580736, "name": "ARTFX INC", "address": "1125 AZALEA GARDEN ROAD NORFOLK VIRGINIA 23502", "country_code": "US", "country_name": "United States", "has_approved_claim": false, "is_closed": null}, {"os_id": "US2020304CQ2M9N", "lon": -76.2379543, "lat": 36.8648826, "name": "ArtFX LLC", "address": "3801 E Princess Anne Rd, Norfolk, VA 23502, USA", "country_code": "US", "country_name": "United States", "has_approved_claim": false, "is_closed": null}, {"os_id": "MD2019085QAK7W1", "lon": 28.8287662, "lat": 46.0613723, "name": "ASENA 3 TEXTIL S.R.L.", "address": "SOVETSKAYA NO:5/1 CEADIR LUNGA  7401", "country_code": "MD", "country_name": "Moldova, Republic of", "has_approved_claim": false, "is_closed": null}, {"os_id": "MD201908552WTZ6", "lon": 28.6550533, "lat": 46.2921193, "name": "ASENA 4", "address": "LENIN STREET NO. 243  KONGAZ,COMRAT   3819", "country_code": "MD", "country_name": "Moldova, Republic of", "has_approved_claim": false, "is_closed": null}, {"os_id": "MD2019085JQZ47X", "lon": 28.6615749, "lat": 46.0061596, "name": "ASENA TEXTILE", "address": "STR KIROVA 142 KAZAYAK CEADIR LUNGA  6113", "country_code": "MD", "country_name": "Moldova, Republic of", "has_approved_claim": false, "is_closed": null}, {"os_id": "MD201908576GZ9F", "lon": 28.8287662, "lat": 46.0613723, "name": "ASENA-TEXTIL S.R.L.", "address": "LENIN 42/1 CEADIR-LUNGA  6104", "country_code": "MD", "country_name": "Moldova, Republic of", "has_approved_claim": false, "is_closed": null}, {"os_id": "VN20200531KS7EJ", "lon": 106.889437, "lat": 10.936312, "name": "Asia Garment Manufacturer", "address": "102/6-1, Road No. 2, Amata Industrial Park Bien Hoa Dong Nai Province 810000", "country_code": "VN", "country_name": "Vietnam", "has_approved_claim": false, "is_closed": null}, {"os_id": "CN20220656E2765", "lon": 113.07113, "lat": 22.57368, "name": "ASIATAN (CHINA)", "address": "93 TIANHE W ROAD BAI SHA VILLAGE, Jiangmen Guangdong, Guangdong", "country_code": "CN", "country_name": "China", "has_approved_claim": false, "is_closed": null}, {"os_id": "JP2020114TASDAR", "lon": 135.8256005, "lat": 34.5224709, "name": "ATOM., INC", "address": "156-4, DAIFUKU SAKURAI-SHI, NARA, NARA, OSAKA, 633-0067, JAPAN", "country_code": "JP", "country_name": "Japan", "has_approved_claim": false, "is_closed": null}, {"os_id": "VN2019085AD8P1K", "lon": 106.6497623, "lat": 20.9151636, "name": "AURORA INDUSTRIAL(VIETNAM) FOOTWEAR", "address": "THIEN HUONG COMMUNE, THUY NGUYEN DISTRICT HAIPHONG  ", "country_code": "VN", "country_name": "Vietnam", "has_approved_claim": false, "is_closed": null}, {"os_id": "TR2021236S8SA93", "lon": 27.736841, "lat": 41.336144, "name": "AVERY DENNISON", "address": "G\u00f6\u00e7erler Mahallesi, Ba\u015fkomutan Atat\u00fcrk Caddesi No:30  Saray / Tekirda\u011f / TURKEY", "country_code": "TR", "country_name": "T\u00fcrkiye", "has_approved_claim": false, "is_closed": null}, {"os_id": "CN2019301W3ZGXC", "lon": 113.5390402, "lat": 22.7710802, "name": "Avery Dennison (Guangzhou) Converted Products Ltd.", "address": "No.7 Guangyi Road,Nansha District,Guangzhou", "country_code": "CN", "country_name": "China", "has_approved_claim": false, "is_closed": null}, {"os_id": "CN2019172B2M3BP", "lon": 113.45355, "lat": 23.04091, "name": "Avery Dennison Paxar Packaging (Guangzhou) Limited", "address": "Tanshan Village, Hualong Town, Panyu, Guangzhou China 511434", "country_code": "CN", "country_name": "China", "has_approved_claim": false, "is_closed": null}, {"os_id": "HN20211398A6NZM", "lon": -88.0070811, "lat": 15.4062554, "name": "AVERY DENNISON RIS HONDURAS S DE R", "address": "\u200b ZIP BUFALO EDIFICIO 25, VILLANUEVA, CORTES HONDURAS, VILLANUEVA, CORT\u00c9S", "country_code": "HN", "country_name": "Honduras", "has_approved_claim": false, "is_closed": null}, {"os_id": "VN2019266ZG522P", "lon": 106.7143122, "lat": 10.6384375, "name": "Avery Dennison RIS Vietnam Co. Ltd.", "address": "LOT E01, TRUNG TAM ROADLONG HAU INDUSTRIAL PARKN/ACAN GIUOC", "country_code": "VN", "country_name": "Vietnam", "has_approved_claim": false, "is_closed": null}, {"os_id": "CN20191751BAQKA", "lon": 120.80742, "lat": 31.3083039, "name": "Avery Dennison (Suzhou) Co., Ltd.", "address": "No.56, Yangpu Road, Suzhou Industry Park Suzhou  Jiangsu", "country_code": "CN", "country_name": "China", "has_approved_claim": false, "is_closed": null}, {"os_id": "IT20220646HB7RE", "lon": 13.7462948, "lat": 42.84015249999999, "name": "AVEY DENNISON RIS ITALIA SRL", "address": "STRADA PROVINCIALE BONIFICA 41, ANCARANO, 64010", "country_code": "IT", "country_name": "Italy", "has_approved_claim": false, "is_closed": null}, {"os_id": "NL2019085ANA4ZZ", "lon": 4.8813352, "lat": 52.0809967, "name": "BADGE PROMOTIONS BV", "address": "INDUSTRIEWEG 3 WOERDEN", "country_code": "NL", "country_name": "Netherlands", "has_approved_claim": false, "is_closed": null}, {"os_id": "CN2022065E4J8N3", "lon": 113.75, "lat": 23.03013, "name": "BAIKSAN (CHINA)", "address": "No 4 Industrial West Road, Dongguan, Guangdong, 523950", "country_code": "CN", "country_name": "China", "has_approved_claim": false, "is_closed": null}, {"os_id": "KR2019085792PYW", "lon": 128.8548204, "lat": 35.0869367, "name": "BAIKSAN CO. LTD.", "address": "1735-15 SONGJEONG-DONG SIHEUNG-SI BUSAN 0", "country_code": "KR", "country_name": "Korea, Republic of", "has_approved_claim": false, "is_closed": null}, {"os_id": "ID2019085VKHK4W", "lon": 106.5075374, "lat": -6.2099515, "name": "BAIKSAN INDONESIA", "address": "JL. BUMIMAS I NO.7 KAWASAN INDUSTRI CIKUPAMAS, CIKUPA, TANGERANG TANGERANG BANTEN 15710", "country_code": "ID", "country_name": "Indonesia", "has_approved_claim": false, "is_closed": null}, {"os_id": "KR2022065HF3RGS", "lon": 129.0756416, "lat": 35.1795543, "name": "BAIKSAN (KOREA)", "address": "10 Noksansandan 382 ro , Busan, Gyeongsangnamdo, 46757", "country_code": "KR", "country_name": "Korea, Republic of", "has_approved_claim": false, "is_closed": null}, {"os_id": "VN2019266X3YHN2", "lon": 106.676938, "lat": 11.078563, "name": "Baiksan Vietnam Co., Ltd ", "address": "No. 50 , Road 3, Vietnam Singapore Industrial Park II, Hoa Phu Ward, Thu Dau Mot City, Thu Dau Mot, Binh Duong", "country_code": "VN", "country_name": "Vietnam", "has_approved_claim": false, "is_closed": null}, {"os_id": "US2020114XV4VMX", "lon": -122.8003064, "lat": 45.479215, "name": "BC GRAPHICS, INC", "address": "19000 SW 11TH ST., SUITE 400, BEAVERTON, OREGON, 97005, UNITED STATES OF AMERICA", "country_code": "US", "country_name": "United States", "has_approved_claim": false, "is_closed": null}, {"os_id": "CN2022065DR3GQH", "lon": 116.61907, "lat": 39.90265, "name": "Beijing Our Clothing&Apparel Ltd.", "address": "XiQu YiHao ChongXingSi Village, BeiJing, Beijing, 100024", "country_code": "CN", "country_name": "China", "has_approved_claim": false, "is_closed": null}, {"os_id": "KH2019086VJQKEJ", "lon": 104.8246027, "lat": 11.5333135, "name": "Berry Apparel (Cambodia) Co. Ltd", "address": "Phum Chumpou Voin, Sangkat Chom Chao, Khan Posenchey, 12405, Phnom Penh, Cambodia", "country_code": "KH", "country_name": "Cambodia", "has_approved_claim": false, "is_closed": null}, {"os_id": "US2019085GFAQHJ", "lon": -96.830947, "lat": 32.93669, "name": "BIG GAME SPORTS", "address": "13835 WELCH RD DALLAS TEXAS 75244", "country_code": "US", "country_name": "United States", "has_approved_claim": false, "is_closed": null}, {"os_id": "US20190853RADM7", "lon": -97.0329876, "lat": 32.9422224, "name": "BLUE STAR GRAPHICS", "address": "2500 REGENT BOULEVARD DALLAS TEXAS 75261", "country_code": "US", "country_name": "United States", "has_approved_claim": false, "is_closed": null}, {"os_id": "LK2019085FRHTWY", "lon": 80.7243737, "lat": 6.6270577, "name": "BODYLINE (PRIVATE) LIMITED - BALANGODA", "address": "WELIGEPOLA ROAD BALANGODA SRI LANKA 70100", "country_code": "LK", "country_name": "Sri Lanka", "has_approved_claim": false, "is_closed": null}, {"os_id": "LK2019085625333", "lon": 80.1531316, "lat": 6.5400904, "name": "BODYLINE PRIVATE LIMITED III", "address": "KALAWELLAWA ROAD AGALAWATTA SRI LANKA 12200", "country_code": "LK", "country_name": "Sri Lanka", "has_approved_claim": false, "is_closed": null}, {"os_id": "LK2019085K1GWEY", "lon": 80.2431206, "lat": 6.8785933, "name": "BODYLINE (PVT) LIMITED", "address": "RATNAPURA ROAD HORANA WESTERN PROVINCE 12400", "country_code": "LK", "country_name": "Sri Lanka", "has_approved_claim": false, "is_closed": null}, {"os_id": "LK2019085YFMH9B", "lon": 80.1531316, "lat": 6.5400904, "name": "BODYLINE (PVT) LIMITED (BPL II)", "address": "KALAWELLAWA ROAD AGALAWATTA WESTERN PROVINCE 12200", "country_code": "LK", "country_name": "Sri Lanka", "has_approved_claim": false, "is_closed": null}, {"os_id": "CN20190852HGH1Z", "lon": 119.4125005, "lat": 32.3937202, "name": "BOU JIN (YANGZHOU) GARMENTS CO., LTD", "address": "NO. 1, BAO YUEN RD., YUEYUEN INDUSTRIAL PARK, YANGZHOU YANGZHOU JIANGSU 225000", "country_code": "CN", "country_name": "China", "has_approved_claim": false, "is_closed": null}, {"os_id": "VN20220636XT7E5", "lon": 106.83835, "lat": 10.641557, "name": "Branch 1 - Greentech Headgear Company Limited in Dong Nai", "address": "Building# 3, 4, 5, 6, 22, 23, Road No. 3,  Industrial Zone Nhon Trach 2 - Nhon Phu, Phu Hoi Commune, Nhon Trach District 76000 Dong Nai Vietnam", "country_code": "VN", "country_name": "Vietnam", "has_approved_claim": false, "is_closed": null}, {"os_id": "VN20190859R5D0G", "lon": 106.516063, "lat": 10.572563, "name": "BRANCH OF THUAN PHUONG EMBROIDERIES GARMENTS COMPANY LIMITED - THUAN PHUONG LONG AN FACTORY", "address": "HAMLET 3, LONG CANG COMMUNE, CAN DUOC DISTRICT, LONG AN PROVINCE CAN DUON LONG AN", "country_code": "VN", "country_name": "Vietnam", "has_approved_claim": false, "is_closed": null}, {"os_id": "LK2021139M8XTPJ", "lon": 81.701221, "lat": 7.721255, "name": "BRANDIX APPAREL SOLUTION LTD - ESSENTIALS", "address": "449,NEW KALMUNAI ROAD ARYAMPATHY BATTICALOA, BATTICALOA, BATTICALOA", "country_code": "LK", "country_name": "Sri Lanka", "has_approved_claim": false, "is_closed": null}, {"os_id": "LK2022073KEVX11", "lon": 80.3078202, "lat": 5.998359, "name": "Brandix Apparel Solution LTD - Essentials Koggala", "address": "Lot 27, Habaraduwa, Galle, 80630", "country_code": "LK", "country_name": "Sri Lanka", "has_approved_claim": false, "is_closed": null}, {"os_id": "IN20220656GZ3WW", "lon": 82.97739, "lat": 17.5252746, "name": "BRANDIX APPL INDIA(P) LTD", "address": "Plot No 18  BIAC SEZ, India., Andhra Pradesh, 531011", "country_code": "IN", "country_name": "India", "has_approved_claim": false, "is_closed": null}, {"os_id": "KR2019093X80MR6", "lon": 127.1830322, "lat": 37.44587569999999, "name": "BUMCHANG DOORI", "address": "RM.601, SK BUILDING, #223-28, SANGDAEWON-DONG, JOONGWON-GU SUNGNAM-SI KYUNGGI-DO 461-182", "country_code": "KR", "country_name": "Korea, Republic of", "has_approved_claim": false, "is_closed": null}, {"os_id": "US2020079EVYY89", "lon": -85.9041683, "lat": 34.4524869, "name": "Bur Tex Hosiery Inc.", "address": "521 Paul Benefield Lane, Fyffe, Alabama, United States", "country_code": "US", "country_name": "United States", "has_approved_claim": false, "is_closed": null}, {"os_id": "MX20190855AQVYX", "lon": -98.21518890000002, "lat": 19.0114269, "name": "CALCETINES DE EXPORTACI\u00d3N SAN JOS\u00c9 S.A. DE C.V", "address": "MIRASOLES 12 PUEBLA PUEBLA 0", "country_code": "MX", "country_name": "Mexico", "has_approved_claim": false, "is_closed": null}, {"os_id": "IT2021139RFR0WA", "lon": 10.3012822, "lat": 45.5353501, "name": "CALZIFICIO DE PIO  DI CHIARUTTINI & C. SNC", "address": "VIA TITO SPERI 29, BOTTICINO, BRESCIA", "country_code": "IT", "country_name": "Italy", "has_approved_claim": false, "is_closed": null}, {"os_id": "MX2019085AW1F6T", "lon": -90.493761, "lat": 19.8695953, "name": "CAMPECHE SPORTSWEAR, S. DE R.L.DE C.V.", "address": "ANTIGUA CARRETERA CAMPECHE-HAMPOLOL SAN FRANCISCO DE CAMPECHE CAMPECHE 24023", "country_code": "MX", "country_name": "Mexico", "has_approved_claim": false, "is_closed": null}, {"os_id": "VN201908567S7W6", "lon": 106.287521, "lat": 11.2163241, "name": "CAN SPORTS VIETNAM CO., LTD", "address": "THUAN HOA  HAMLET, TRUONG MIT COMMUNE DUONG MINH CHAU DISTRICT TAY NINH PROVINCE 73000", "country_code": "VN", "country_name": "Vietnam", "has_approved_claim": false, "is_closed": null}, {"os_id": "US2019085A35TV8", "lon": -96.410641, "lat": 30.653388, "name": "C.C. CREATIONS", "address": "1800 SHILOH AVENUE BRYAN TEXAS 77803", "country_code": "US", "country_name": "United States", "has_approved_claim": false, "is_closed": null}, {"os_id": "VN2019083QGG10K", "lon": 106.729859, "lat": 10.752371, "name": "CCH Top Vietnam Co., Ltd. | CCH Top Co., Ltd. ", "address": "Tan Thuan Road, Tan Thuan Export Processing Zone Ho Chi Minh City Ho Chi Minh", "country_code": "VN", "country_name": "Vietnam", "has_approved_claim": false, "is_closed": null}, {"os_id": "VN2022065M6YCWN", "lon": 107.4292386, "lat": 11.2677446, "name": "CHANG SHIN DONG NAI COMPANY LTD", "address": "LO IV, II TAN PHU INDUSTRIAL ZONE, Dong Nai, \u00d0ng Nai, 76000", "country_code": "VN", "country_name": "Vietnam", "has_approved_claim": false, "is_closed": null}, {"os_id": "KR20211397R0MCE", "lon": 128.9740248, "lat": 35.0883662, "name": "CHANGSHIN INC.", "address": "242, JANGPYEONG-RO, SAHA-GU, BUSAN, KOREA, BUSAN, BUSAN GWANGYEOGSI", "country_code": "KR", "country_name": "Korea, Republic of", "has_approved_claim": false, "is_closed": null}, {"os_id": "ID2019085D8DQYX", "lon": 107.3496692, "lat": -6.3716856, "name": "CHANG SHIN INDONESIA", "address": "JL DUSUN GINTUNGKOLOT RT 16/04, GINTUNGKERTA , KLARI KARAWANG WEST JAVA 41371", "country_code": "ID", "country_name": "Indonesia", "has_approved_claim": false, "is_closed": null}, {"os_id": "VN20190855N2MEV", "lon": 106.9889904, "lat": 10.8111548, "name": "CHANG SHIN VIETNAM CO., LTD", "address": "LOT C, LOC AN \u2013 BINH SON INDUSTRIAL ZONE LONG THANH DISTRICT DONG NAI 0", "country_code": "VN", "country_name": "Vietnam", "has_approved_claim": false, "is_closed": null}, {"os_id": "VN20190859M9WED", "lon": 106.8520996, "lat": 11.012687, "name": "CHANG SHIN VIETNAM COMPANY, LTD.", "address": "THANH PHU, VINH CUU DONG NAI DONG NAI 61", "country_code": "VN", "country_name": "Vietnam", "has_approved_claim": false, "is_closed": null}, {"os_id": "TW2021139YYVDAB", "lon": 120.714177, "lat": 24.235618, "name": "CHANG WONG INDUSTRIAL CO  LTD.", "address": "NO.157, LN.92, FENGNAN ST TAICHUNG CITY, TAICHUNG", "country_code": "TW", "country_name": "Taiwan", "has_approved_claim": false, "is_closed": null}, {"os_id": "CN2022065SMM9AP", "lon": 119.496, "lat": 31.61659, "name": "Changzhou Qingqing Knitted Textile Co., Ltd.", "address": "80 Xingbiao North Rd  Zhiqian Town Jintan District, Changzhou, Jiangsu, 213234", "country_code": "CN", "country_name": "China", "has_approved_claim": false, "is_closed": null}, {"os_id": "TW2019085MQZ2ZF", "lon": 121.2053963, "lat": 24.9296022, "name": "CHENG HORNG INDUSTRIAL CO., LTD.", "address": "NO.230, HONGZUN RD., PINGZHEN DIST. TAOYUAN KAO-HSIUNG 324", "country_code": "TW", "country_name": "Taiwan", "has_approved_claim": false, "is_closed": null}, {"os_id": "CN2022065C9FSED", "lon": 117.815, "lat": 24.7211999, "name": "CHI YANG", "address": "Xin Tai Industrial Zone, Zhang Zhou, Fujian, 363900", "country_code": "CN", "country_name": "China", "has_approved_claim": false, "is_closed": null}, {"os_id": "TW2022065NXRXMQ", "lon": 121.4243893, "lat": 25.1620803, "name": "CHI YANG RIBBON", "address": "NO219 Guan Hai BLVD Bali district, New Taipei, New Taipei, 241", "country_code": "TW", "country_name": "Taiwan", "has_approved_claim": false, "is_closed": null}, {"os_id": "CN2021139WM61C6", "lon": 108.408661, "lat": 30.807667, "name": "CHONGQING SUMEC CHANGJIANG GARMENT CO LTD", "address": "NO.22-2 , LIANHE ROAD , WANZHOU DISTRICT, CHONGQING, CHONGQING", "country_code": "CN", "country_name": "China", "has_approved_claim": false, "is_closed": null}, {"os_id": "TW20190859DKMGH", "lon": 120.6736482, "lat": 24.1477358, "name": "CHUAN CHENG HAT CO., LTD.", "address": "NO. 56, CHUNG SHAN ROAD TAICHUNG TAIWAN, R.O.C. 407", "country_code": "TW", "country_name": "Taiwan", "has_approved_claim": false, "is_closed": null}, {"os_id": "TW2019093BBGG81", "lon": 120.7120023, "lat": 22.6158015, "name": "CHUAN CHENG (YUN LIN) FACTORY", "address": "14, JUNG CUN ROAD, PU-ZAI CUN, CI TONG HSIANG YUAN LIN HSIEN", "country_code": "TW", "country_name": "Taiwan", "has_approved_claim": false, "is_closed": null}, {"os_id": "TW20220653DVZEM", "lon": 120.4726431, "lat": 23.9187719, "name": "Chun Yu Ribbon ENT Co., Ltd.", "address": "No 557 Sec  4 Zhangshui Rd  Pitou Township , Changhua, Changhua, 523", "country_code": "TW", "country_name": "Taiwan", "has_approved_claim": false, "is_closed": null}, {"os_id": "CN202113979ZXXC", "lon": 118.4186995, "lat": 32.3045297, "name": "CHUZHOU KORRUN FUTURE LUGGAGE PRODUCTS CO  LTD", "address": "BLOCK#12 ,QUANZHOU ROAD#100,, CHUZHOU, ANHUI", "country_code": "CN", "country_name": "China", "has_approved_claim": false, "is_closed": null}, {"os_id": "IT2019085P0MF5M", "lon": 11.11507, "lat": 44.731, "name": "CIEFFECI SRL", "address": "VIA RUGGINENTA N. 67 RAVARINO EMILIA-ROMAGNA 41017", "country_code": "IT", "country_name": "Italy", "has_approved_claim": false, "is_closed": null}, {"os_id": "VN20201148BFVES", "lon": 106.6143381, "lat": 11.4884133, "name": "C&K VINA CO.,LTD", "address": "LOT E1, E2, MINH HUNG KOREA INDUSTRIAL PARK, CHON THAN DISTRICT, B\u00ccNH PHUC, 83000, VIETNAM", "country_code": "VN", "country_name": "Vietnam", "has_approved_claim": false, "is_closed": null}, {"os_id": "BR2019085CCWCS6", "lon": -39.2889942, "lat": -5.1831571, "name": "COCALQUI COOPERATIVA DE TRABALHO DA IND\u00daSTRIA DE CAL\u00c7ADOS DE QUIXERAMOBIM", "address": "RUA GERALDO BIZARRIA DE CARVALHO, 35 QUIXERAMOBIM CEAR\u00c1 63800-000", "country_code": "BR", "country_name": "Brazil", "has_approved_claim": false, "is_closed": null}, {"os_id": "IT2019085YYSF82", "lon": 13.743505, "lat": 42.853555, "name": "COLLITEX S.R.L.", "address": "STRADA PROVINCIALE BONIFICA, 41 ANCARANO ABRUZZI 64010", "country_code": "IT", "country_name": "Italy", "has_approved_claim": false, "is_closed": null}, {"os_id": "VN20191003GSMTB", "lon": 106.3949516, "lat": 11.0214242, "name": "COLLTEX GARMENT MFY CO LTD., (VN)", "address": "Lot 28, Road no. 7, Trang Bang Industrial Park, An Tinh Village, Trang Bang, Industrial Park, An Tinh Village, Trang Bang District, Vietnam, Tay Ninh", "country_code": "VN", "country_name": "Vietnam", "has_approved_claim": false, "is_closed": null}, {"os_id": "VN2019085VA2PXQ", "lon": 106.6930171, "lat": 10.3720639, "name": "CONG TIEN GARMENT JOINT STOCK COMPANY", "address": "27 MAC VAN THANH STREET, WARD 3 GO CONG TIEN GIANG 84", "country_code": "VN", "country_name": "Vietnam", "has_approved_claim": false, "is_closed": null}, {"os_id": "VN2020114ERRAXK", "lon": 106.7278375, "lat": 10.9010474, "name": "CONG TY TNHH MAY MAC PREMIER GLOBAL VIETNAM", "address": "LO C, DUONG SO 1, KCN DONG AN, TINH BINH DUONG, BINH DUONG, 82000, VIETNAM", "country_code": "VN", "country_name": "Vietnam", "has_approved_claim": false, "is_closed": null}, {"os_id": "MX2020070B4JSJW", "lon": -100.0127158, "lat": 20.4060183, "name": "Contratistas y Maquilas de M\u00e9xico SA de CV   \u2013  Planta de Terminado  (previously Manufacturas Kaltex)", "address": "Rancho los Mejia S/N, Barrio del Espiritu Santo", "country_code": "MX", "country_name": "Mexico", "has_approved_claim": false, "is_closed": null}, {"os_id": "AR2019085FYVC55", "lon": -68.8184642, "lat": -32.8930597, "name": "COOPERATIVA TEXTIL SEUCA LTDA.", "address": "LAS HERAS 513 GUAYMALLEN MENDOZA", "country_code": "AR", "country_name": "Argentina", "has_approved_claim": false, "is_closed": null}, {"os_id": "BR20220650XDXYA", "lon": -38.3751091, "lat": -5.1067893, "name": "Coopershoes (Aruaru)", "address": "Rodovia CE 138 sn, Morada Nova, Cear\u00e1, 62940-000", "country_code": "BR", "country_name": "Brazil", "has_approved_claim": false, "is_closed": null}, {"os_id": "BR20201200QF4DJ", "lon": -51.5175025, "lat": -29.2585127, "name": "COOPERSHOES - COOPERATIVA DE TRABALHO E INDUSTRIA DE CAL\u00c7ADOS JOANETENSE LTDA (GARIBALDI)", "address": "RUA JO\u00c3O MISSIAGGIA, 193, CENTRO., GARIBALDI, RIO GRANDE DO SUL, 95720-000, BRAZIL", "country_code": "BR", "country_name": "Brazil", "has_approved_claim": false, "is_closed": null}, {"os_id": "AR2019085NHNK3X", "lon": -59.0992986, "lat": -36.0141576, "name": "COOPERSHOES - COOPERATIVA DE TRABALHO E INDUSTRIA DE CAL\u00c7ADOS JOANETENSE LTDA (LAS FLORES)", "address": "CALLE EL MOLINO LAS FLORES ARGENTINA 7200", "country_code": "AR", "country_name": "Argentina", "has_approved_claim": false, "is_closed": null}, {"os_id": "BR2019083FCH0NC", "lon": -51.103005, "lat": -29.45128, "name": "Coopershoes Ltda. (Picada Cafe)", "address": "Rua Vicente Prieto 3581  Joaneta Picada Caf\u00e9  Rio Grande do Sul", "country_code": "BR", "country_name": "Brazil", "has_approved_claim": false, "is_closed": null}, {"os_id": "BR2021139DVY3Q6", "lon": -38.3639255, "lat": -5.0891319, "name": "COOPERSHOES (MORADA NOVA)", "address": "AVENIDA DO CONTORNO, N 2065 CE 265, MORADA NOVA, CEAR\u00c1", "country_code": "BR", "country_name": "Brazil", "has_approved_claim": false, "is_closed": null}, {"os_id": "GT20190839R512V", "lon": -90.5844748, "lat": 14.5337127, "name": "Corporacion Indyknit S.A.", "address": "5A Calle 5-26 Ofibodegas Zona 6 Villa Nueva Guatemala", "country_code": "GT", "country_name": "Guatemala", "has_approved_claim": false, "is_closed": null}, {"os_id": "CN20220649MCF81", "lon": 120.77228, "lat": 30.39756, "name": "COSMO (HTA)", "address": "NO. 45, XIN YUAN ROAD, YUANHUA TOWN, HAINING, Zhejiang, 314400", "country_code": "CN", "country_name": "China", "has_approved_claim": false, "is_closed": null}, {"os_id": "CN2022065Z4SVC5", "lon": 113.75179, "lat": 23.0206699, "name": "COSMO TEXTILE CO.,LTD(KNITTING/WOVEN CHINA)", "address": "THE THIRD INDUSTRIAL ESTATE, Dongguan, Guangdong, 523159", "country_code": "CN", "country_name": "China", "has_approved_claim": false, "is_closed": null}, {"os_id": "CN20211613SFYQY", "lon": 113.530998, "lat": 22.498612, "name": "Cosmo Textile Co., Ltd. (Zhongshan)", "address": "Block 17-21, Longzhuyuan,Nanlang Industrial District, Nanlang Town, Zhongshan, GuangDong", "country_code": "CN", "country_name": "China", "has_approved_claim": false, "is_closed": null}, {"os_id": "VN2022064JGDRNG", "lon": 106.4461544, "lat": 10.7851005, "name": "COSMO VIET NAM CO., LTD.", "address": "FACTORY 01, LOT 19, ROAD 15B. TAN DUC IP, HUU THANH COMMUNE, DUC HOA, Long An Province, 085000", "country_code": "VN", "country_name": "Vietnam", "has_approved_claim": false, "is_closed": null}, {"os_id": "US20190853PWY1N", "lon": -89.783105, "lat": 35.210869, "name": "CROWN MANUFACTURING", "address": "8390 WOLF LAKE DRIVE BARTLETT TENNESSEE 38133", "country_code": "US", "country_name": "United States", "has_approved_claim": false, "is_closed": null}, {"os_id": "VN20220653N2B71", "lon": 106.6905249, "lat": 11.0350554, "name": "CTC NONWOVENS VIETNAM CO LTD", "address": "Lot No CN13 Street D1, Phu Tan Ward, B\u00ecnh Duong, 72000", "country_code": "VN", "country_name": "Vietnam", "has_approved_claim": false, "is_closed": null}, {"os_id": "US2019085DEF33H", "lon": -88.5547481, "lat": 34.7626447, "name": "C&W EMBROIDERY", "address": "386 HWY 356 RIENZI MISSISSIPPI 38865", "country_code": "US", "country_name": "United States", "has_approved_claim": false, "is_closed": null}, {"os_id": "ID20220655P0YH8", "lon": 106.9299579, "lat": -6.2393686, "name": "DAEHWA INDONESIA PT (TR1) (INDONESIA)", "address": "Bekasi Intl Industrial Estate Block , BEKASI, Jawa Barat, 13450", "country_code": "ID", "country_name": "Indonesia", "has_approved_claim": false, "is_closed": null}, {"os_id": "KR202005396MG95", "lon": 129.0720378, "lat": 35.0803168, "name": "Daerim Textile South Korea", "address": "14, Noksansandan 382-ro 14beongil,\nGangseogu Busan Busan 46757", "country_code": "KR", "country_name": "Korea, Republic of", "has_approved_claim": false, "is_closed": null}, {"os_id": "VN2022065M70FCB", "lon": 106.9191967, "lat": 10.8050296, "name": "DAEWON CHEMICAL VINA CO., LTD.", "address": "ROAD NO5 LONG THANH INDUSTRIAL ZONE TAM AN COMMUNE, LONG THANH, \u00d0ng Nai, 810000", "country_code": "VN", "country_name": "Vietnam", "has_approved_claim": false, "is_closed": null}, {"os_id": "KR2020053ZFWFSV", "lon": 127.045417, "lat": 37.1956568, "name": "Daewon South Korea", "address": "868-14, Gyeonggi-daero, Osan-si, Gyeonggi-do  Gyeonggi 18111", "country_code": "KR", "country_name": "Korea, Republic of", "has_approved_claim": false, "is_closed": null}, {"os_id": "TW2020349T88STW", "lon": 121.4715241, "lat": 25.0868908, "name": "Dah Jeng Embroidery, Inc.", "address": "4F, No. 68 Jiuquing St. Luzhou District Luzhou District", "country_code": "TW", "country_name": "Taiwan", "has_approved_claim": false, "is_closed": null}, {"os_id": "CN2019172FGYHVG", "lon": 121.774804, "lat": 39.0703419, "name": "Dalian Ykk Zipper Co.,Ltd.", "address": "No.50 Tieshan West Road,Dalian Economic & Technicaldevelopment Zon,Dalian China Dalian 116699 Liaoning", "country_code": "CN", "country_name": "China", "has_approved_claim": false, "is_closed": null}, {"os_id": "KH2019085Y4X3XB", "lon": 104.9220943, "lat": 11.5605899, "name": "DAQIAN TEXTILE (CAMBODIA) CO., LTD", "address": "PHUM TROPAING THLEOUNG, SANGKAT CHAOM CHAOV PHNOM PENH POUTHISAT 0", "country_code": "KH", "country_name": "Cambodia", "has_approved_claim": false, "is_closed": null}, {"os_id": "AR2019085WVET2D", "lon": -54.62153679999999, "lat": -26.4105281, "name": "DASS ELDORADO SRL", "address": "ALBERTO BEJAR BARRIOS, 407 ELDORADO MISIONES 30-71008366-1", "country_code": "AR", "country_name": "Argentina", "has_approved_claim": false, "is_closed": null}, {"os_id": "BR2019085TMZ8CE", "lon": -40.844938, "lat": -14.913187, "name": "DASS NORDESTE  CAL\u00c7ADOS E ARTIGOS ESPORTIVOS LTDA.", "address": "AV. JURACY MAGALH\u00c3ES, 5200 VIT\u00d3RIA DA CONQUISTA BAHIA - BA 45023 -490", "country_code": "BR", "country_name": "Brazil", "has_approved_claim": false, "is_closed": null}, {"os_id": "BR2019085E3B2AN", "lon": -51.15975479999999, "lat": -29.6094259, "name": "DASS NORDESTE CAL\u00c7ADOS E ARTIGOS ESPORTIVOS LTDA", "address": "RUA JULIO HAUSER, 1640 - BAIRRO 7 DE SETEMBRO IVOTI RS 93900-000", "country_code": "BR", "country_name": "Brazil", "has_approved_claim": false, "is_closed": null}, {"os_id": "BR2019085Q71GZV", "lon": -39.2461822, "lat": -12.4316382, "name": "DASS NORDESTE CAL\u00c7ADOS E ARTIGOS ESPORTIVOS LTDA.", "address": "RUA PROFESSORA MARIA LIA CELIA VELLAME, S/N SANTO ESTEV\u00c3O BAHIA 44190-000", "country_code": "BR", "country_name": "Brazil", "has_approved_claim": false, "is_closed": null}, {"os_id": "BR2019085KJAGET", "lon": -53.00040449999999, "lat": -26.9284953, "name": "DASS SUL CAL\u00c7ADOS E ARTIGOS ESPORTIVOS LTDA", "address": "MARCILIO DIAS, 10 SAUDADES SC 89868-000", "country_code": "BR", "country_name": "Brazil", "has_approved_claim": false, "is_closed": null}, {"os_id": "BR20190852VXEVG", "lon": -52.1839751, "lat": -29.6380646, "name": "DASS SUL CAL\u00c7ADOS E ARTIGOS ESPORTIVOS LTDA - VENANCIO AIRES", "address": "RUA OTTMMAR BENNO SCHULTZ, 3700 VENANCIO AIRES RIO GRANDE DO SUL 95800-000", "country_code": "BR", "country_name": "Brazil", "has_approved_claim": false, "is_closed": null}, {"os_id": "VN2019085864HDD", "lon": 106.7264125, "lat": 10.8775897, "name": "DEAN SHOES VIETNAM", "address": "LOT.1-4, 10-13, 26-37, ROAD NO3 HO CHI MINH CITY BINH CHIEU WARD, THU DUC DISTRICT", "country_code": "VN", "country_name": "Vietnam", "has_approved_claim": false, "is_closed": null}, {"os_id": "SV2019085X74GZS", "lon": -89.4199398, "lat": 13.814184, "name": "DECOTEX INTERNATIONAL, LDTA DE C.V.", "address": "AMERICAN INDUSTRIAL PARK BLOCK H CALLE CANADA CIUDAD ARCE LA LIBERTAD Zona 13", "country_code": "SV", "country_name": "El Salvador", "has_approved_claim": false, "is_closed": null}, {"os_id": "TR2021139KN3XFF", "lon": 31.169855, "lat": 40.8421607, "name": "DELTA ALFA CORAP VE TEKST\u0130L SAN.T\u0130C.A.S", "address": "Delta Alfa Corap ve Tekstil A.S Topcular Mah.Duzce Cad. No:103/A cilimli Duzce 81750", "country_code": "TR", "country_name": "T\u00fcrkiye", "has_approved_claim": true, "is_closed": null}, {"os_id": "MX2019083NS3Z6J", "lon": -90.6889211, "lat": 19.6386521, "name": "Delta Campeche", "address": "Carretera Federal No. 180 Km. 175 Colonia El Molon Seybaplaya Campeche", "country_code": "MX", "country_name": "Mexico", "has_approved_claim": false, "is_closed": null}, {"os_id": "EG2019085EZQ9SB", "lon": 30.7618397, "lat": 28.0870967, "name": "DELTA GALIL INDUSTRIES LTD EGYPT", "address": "DELTA TEXTILE SHAMAL EL SAEED EL-MINYA AL-MINUFIYAH 61784", "country_code": "EG", "country_name": "Egypt", "has_approved_claim": false, "is_closed": null}, {"os_id": "VN2019085CPJGMN", "lon": 109.073062, "lat": 14.012313, "name": "DELTA GALIL VIETNAM CO. LTD", "address": "CAT TRINH COMMUNITY, PHU CAT DISTRICT BINH DINH BINH DINH 0", "country_code": "VN", "country_name": "Vietnam", "has_approved_claim": true, "is_closed": null}, {"os_id": "IL2019098QEAJVE", "lon": 35.292417, "lat": 32.914671, "name": "Delta Socks Ltd.", "address": "1 Hayotzrim St.,Karmiel,Karmiel,Israel", "country_code": "IL", "country_name": "Israel", "has_approved_claim": true, "is_closed": null}, {"os_id": "BG2019085SR2DBD", "lon": 26.61951, "lat": 44.0386035, "name": "DELTA TEXTILE BULGARIA LTD.", "address": "44 TUTRAKAN BLVD, Russe, Bulgaria", "country_code": "BG", "country_name": "Bulgaria", "has_approved_claim": true, "is_closed": null}, {"os_id": "AR2022083NQFR7Y", "lon": -58.6770977, "lat": -34.4833944, "name": "Der Will S.A.", "address": "Monsenor de Andrea 3333 Villa de Mayo, Buenos Aires, Buenos Aires, 1614", "country_code": "AR", "country_name": "Argentina", "has_approved_claim": false, "is_closed": null}, {"os_id": "AR20190858G1BP6", "lon": -58.62727150000001, "lat": -34.4938049, "name": "DER WILL S.A.", "address": "ESTEBAN ECHEVERRIA 3250-DON TORCUATO BUENOS AIRES BUENOS AIRES 1611", "country_code": "AR", "country_name": "Argentina", "has_approved_claim": false, "is_closed": null}, {"os_id": "KH2019083ZWWEM3", "lon": 105.8723337, "lat": 11.8830943, "name": "Dewhirst (Cambodia) Co Ltd ", "address": "Tuorl Pongror Village Sangkat Chom Chao", "country_code": "KH", "country_name": "Cambodia", "has_approved_claim": false, "is_closed": null}, {"os_id": "MX20190850ZKFPN", "lon": -116.5764676, "lat": 31.7833481, "name": "DIACO INTERNACIONAL, S.A. DE C.V.", "address": "PARCELA 17, Z1, P-1  EX EJIDO CHAPULTEPEC ENSENADA BAJA CALIFORNIA 22785", "country_code": "MX", "country_name": "Mexico", "has_approved_claim": false, "is_closed": null}, {"os_id": "IT2019085F1VS2W", "lon": 11.0168809, "lat": 45.1827546, "name": "DIAMANT SRL", "address": "VIALE DEL LAVORO 8 SORGA VERONA 37060", "country_code": "IT", "country_name": "Italy", "has_approved_claim": false, "is_closed": null}, {"os_id": "IT20190859K1MJS", "lon": 12.0154708, "lat": 45.7757296, "name": "DIAMANT SRL #2", "address": "VIA GIORGIO PERLASCA, 6/B MONTEBELLUNA VENETO 31044", "country_code": "IT", "country_name": "Italy", "has_approved_claim": false, "is_closed": null}, {"os_id": "IT2019085FF8RN9", "lon": 12.2620427, "lat": 45.6243912, "name": "DOMINAE SRL", "address": "VIALE DELLE INDUSTRIE 43 DOSSON DI CASIER TV 31030", "country_code": "IT", "country_name": "Italy", "has_approved_claim": false, "is_closed": null}, {"os_id": "VN2019085WJY6T9", "lon": 107.0276259, "lat": 10.958135, "name": "DONA ORIENT VIETNAM", "address": "SONG MAY INDUSTRIAL ZONE, TRANG BOM DISTRICT, DONG NAI PROVINCE DONG NAI DONG NAI 61", "country_code": "VN", "country_name": "Vietnam", "has_approved_claim": false, "is_closed": null}, {"os_id": "VN20211398F1TQZ", "lon": 106.9540283, "lat": 10.9713461, "name": "DONA PACIFIC VIETNAM CO  LTD.", "address": "SONG MAY INDUSTRIAL ZONE  BAC SON VILLIAGE , DONG NAI, \u00d0NG NAI", "country_code": "VN", "country_name": "Vietnam", "has_approved_claim": false, "is_closed": null}, {"os_id": "VN2019085C3H557", "lon": 107.4321959, "lat": 10.9652026, "name": "DONA STANDARD FOOTWEAR CO., LTD", "address": "XUAN LOC INDUSTRY PARK, XUAN LOC DISTRICT DONG NAI DONG NAI 84", "country_code": "VN", "country_name": "Vietnam", "has_approved_claim": false, "is_closed": null}, {"os_id": "VN20190853EWXAH", "lon": 106.9540283, "lat": 10.9713461, "name": "DONA VICTOR FOOTWEAR CO., LTD", "address": "SONG MAY INDUSTRIAL ZONE, BAC SON VILLAGE TRANG BOM DISTRICT DONG NAI 084-061", "country_code": "VN", "country_name": "Vietnam", "has_approved_claim": false, "is_closed": null}, {"os_id": "CN2019085DHZB2M", "lon": 113.9676438, "lat": 22.9570874, "name": "DONGGUAN BACUI KNITWEAR CO LTD", "address": "JIN MEI VILLAGE, CHANG PING TOWN, DONGGUAN CITY, GUANGDONG PROVINCE, CHINA 523579 DONGGUAN GUANGDONG 523579", "country_code": "CN", "country_name": "China", "has_approved_claim": false, "is_closed": null}, {"os_id": "CN20190854BXEJP", "lon": 113.87497, "lat": 22.99732, "name": "DONG GUAN GOLDENPRENE SPORTING GOODS CO., LTD.", "address": "(GUANG DER CORPORATION LTD /SUMMITOP INDUSTRIAL) LIAOBU TOWN, DONGGUAN GUANGDONG 523405", "country_code": "CN", "country_name": "China", "has_approved_claim": false, "is_closed": null}, {"os_id": "CN2021183GCD4XC", "lon": 113.805419, "lat": 23.054123, "name": "Dongguan Lee Fong Label Manufacture Ltd.", "address": "No.2 Kaixuan Road, sangyuan community, Dongcheng District, Dongguan city, Guangdong Province, China", "country_code": "CN", "country_name": "China", "has_approved_claim": false, "is_closed": null}, {"os_id": "CN2019085QFQFH7", "lon": 113.76102, "lat": 22.961654, "name": "DONGGUAN LIEN HONG BAGS & SPORTS ACCESSORIES LTD.", "address": "NIU SHAN INDUSTRIAL AREA, NIU SHAN DONGCHENG DISTRICT, DONG GUAN CITY, GUANGDONG PROVINCE, CHINA DONG GUAN GUANGDONG ", "country_code": "CN", "country_name": "China", "has_approved_claim": false, "is_closed": null}, {"os_id": "CN2019085Y3MS0R", "lon": 113.772957, "lat": 22.750878, "name": "DONG GUAN NEW PROSPERITY OPTICAL MFY LTD. CHANG AN BRANCH", "address": "NO.43 XIN FENG ROAD, XI MIN VILLAGE, CHANG AN TOWN DONGGUAN GUANGDONG 523879", "country_code": "CN", "country_name": "China", "has_approved_claim": false, "is_closed": null}, {"os_id": "CN2019085CT65QJ", "lon": 113.976312, "lat": 22.951434, "name": "DONG GUAN STELLA", "address": "HOU DA ROAD. DA LING MANAGEMENT DISTRICT DONGGUAN GUANGDONG 523835", "country_code": "CN", "country_name": "China", "has_approved_claim": false, "is_closed": null}, {"os_id": "CN2022065S5HPHR", "lon": 113.75179, "lat": 23.0206699, "name": "Dongguan United Creation Optical Limited", "address": "Room 101, Building 2, Dongguan, Guangdong, 523642", "country_code": "CN", "country_name": "China", "has_approved_claim": false, "is_closed": null}, {"os_id": "CN202118275VT9B", "lon": 114.0076061, "lat": 22.9479766, "name": "Dongguan Yeji Industrial Company Limited", "address": "Room 101, No.3 Building, No.112,  Changhuang Road, Changping Town, Dongguan City, Guangdong Province, China", "country_code": "CN", "country_name": "China", "has_approved_claim": false, "is_closed": null}, {"os_id": "CN2020114GV1R32", "lon": 113.8488538, "lat": 22.943907, "name": "DONGGUAN YOUKAI INDUSTRIAL CO., LTD", "address": "BUILDING 2, 5TH FL, HUAWEI KEGU,XIANGSHAN ROAD, JICHILING,, DONGGUAN, GUANGDONG, 523000, CHINA", "country_code": "CN", "country_name": "China", "has_approved_claim": false, "is_closed": null}, {"os_id": "ID20220658KASYT", "lon": 107.2370391, "lat": -6.3968263, "name": "DONGJIN (Indonesia)", "address": "Artha Industrial Hill , Karawang, Jawa Barat, 41361", "country_code": "ID", "country_name": "Indonesia", "has_approved_claim": false, "is_closed": null}, {"os_id": "VN2019085888M5E", "lon": 106.884901, "lat": 10.9296626, "name": "DONG-JIN TEXTILE CO., LTD.", "address": "LOT D8-1, ROAD NO. 2, LONG BINH TECHNO PARK (LOTECO), BIEN HOA, DONG NAI PROVINCE, VIETNAM BIEN HOA DONG NAI PROVINCE 0", "country_code": "VN", "country_name": "Vietnam", "has_approved_claim": false, "is_closed": null}, {"os_id": "KR2019093HGXB1Z", "lon": 128.9573944, "lat": 35.0905574, "name": "DONGJIN TEXTILE DYEING HOUSE", "address": "#16-13 SINSANRO, SA-HA GU, BUSAN, KOREA SA-HA GU, BUSAN BUSAN 49432", "country_code": "KR", "country_name": "Korea, Republic of", "has_approved_claim": false, "is_closed": null}, {"os_id": "CN2020115ZZX15X", "lon": 121.628123, "lat": 29.802424, "name": "DRAGON CROWD GARMENT INC.", "address": "#10 HUANG SU DONG ROAD, NINGBO, ZHEJIANG, 315000, CHINA", "country_code": "CN", "country_name": "China", "has_approved_claim": false, "is_closed": null}, {"os_id": "KR2020053FJ88XQ", "lon": 127.1985501, "lat": 37.3520259, "name": "Ducksan Co., Ltd", "address": "Opo-eup, Opoan-ro 76  Gyeonggi ", "country_code": "KR", "country_name": "Korea, Republic of", "has_approved_claim": false, "is_closed": null}, {"os_id": "KR2022065M457F1", "lon": 127.2545813, "lat": 37.3810277, "name": "DUCKSAN CO LTD (KOREA)", "address": "19 MARUDEUL GIL 35 BEON GIL, Gyeonggi Do, Gyeonggido, 12796", "country_code": "KR", "country_name": "Korea, Republic of", "has_approved_claim": false, "is_closed": null}, {"os_id": "VN2022082KQBJPH", "lon": 106.830313, "lat": 11.112188, "name": "DUCKSAN CO LTD (Vietnam)", "address": "Lot A4 Dat Cuoc Industrial Dat Cuoc ward, Bac Tan Uyen, B\u00ecnh Duong", "country_code": "VN", "country_name": "Vietnam", "has_approved_claim": false, "is_closed": null}, {"os_id": "KR20190852J6WM0", "lon": 127.2285778, "lat": 37.3662344, "name": "DUCKSAN YANBEOL RI", "address": "OPO-EUP GWANGJU-SI GYEONGGI 12796", "country_code": "KR", "country_name": "Korea, Republic of", "has_approved_claim": false, "is_closed": null}, {"os_id": "IT2019093D1NV4Q", "lon": 10.800118, "lat": 44.549723, "name": "DUE B SNC STIRERIA DI CASTELLARO", "address": "VIA S. PIO X, #173, SASSUOLO EMILIA-ROMAGNA 41049", "country_code": "IT", "country_name": "Italy", "has_approved_claim": false, "is_closed": null}, {"os_id": "CA2019085H8YCMM", "lon": -79.2932074, "lat": 43.7683148, "name": "DYNAMIC TEAM SPORTS", "address": "1870 BIRCHMOUNT RD TORONTO ONTARIO M1P 2J7", "country_code": "CA", "country_name": "Canada", "has_approved_claim": false, "is_closed": null}, {"os_id": "CN2020133RBGNHN", "lon": 112.1789076, "lat": 30.9299642, "name": "Eagle Nice(Jingmen) Garments Co., Ltd.", "address": "No 1-1 FengHuang Third Road  High-tech Zone Duodao District, JingMen, Hubei, China", "country_code": "CN", "country_name": "China", "has_approved_claim": false, "is_closed": null}, {"os_id": "CN201908380QE9Y", "lon": 114.8444713, "lat": 28.3762793, "name": "Eagle Nice(YiFeng) Garments Co. Ltd.", "address": "No.76 Gongzhang Road,Yifeng", "country_code": "CN", "country_name": "China", "has_approved_claim": false, "is_closed": null}, {"os_id": "IN2019085HF2RCP", "lon": 79.6699347, "lat": 12.7245734, "name": "EAST WIND FOOTWEAR COMPANY LIMITED (INDIA BRANCH)", "address": "PLOT NO.3D, SIPCOT INDUSTRIAL PARK, MATHUR MANGAL VILLAGE CHENNAI CHENNAI 631701", "country_code": "IN", "country_name": "India", "has_approved_claim": false, "is_closed": null}, {"os_id": "TW20220655ND5GR", "lon": 120.4242401, "lat": 24.0377011, "name": "ECI ELASTIC CO LTD", "address": "No 13 15 Shin Yeh Rd , Changhua, Changhua, 506", "country_code": "TW", "country_name": "Taiwan", "has_approved_claim": false, "is_closed": null}, {"os_id": "VN20222998NDJGA", "lon": 107.034813, "lat": 10.628312, "name": "ECLAT FABRICS (VIETNAM) CO., LTD.", "address": "MY XUAN A2 INDUSTRIAL ZONE VII-1, TAN THANH DISTRICT, BA RIA-VUNG TAU, Ba Ria-Vung Tau 790000", "country_code": "VN", "country_name": "Vietnam", "has_approved_claim": false, "is_closed": null}, {"os_id": "TW20190857H3TB4", "lon": 121.1784902, "lat": 25.0695143, "name": "ECLAT TEXTILE CO., LTD", "address": "NO.134, DAGONG RD., DAYUAN DIST. TAOYUAN CITY T'AI-WAN 337", "country_code": "TW", "country_name": "Taiwan", "has_approved_claim": false, "is_closed": null}, {"os_id": "VN2019083AXMRBS", "lon": 106.9239773, "lat": 10.7239137, "name": "Eclat Textile Co., Ltd. (Vietnam)", "address": "Lot 1, 5a Road, Nhon Trach Ii Industrial Zone, Nhon Trach, Dong Nai, 71999", "country_code": "VN", "country_name": "Vietnam", "has_approved_claim": false, "is_closed": null}, {"os_id": "TW2022065SQ04S9", "lon": 121.43419, "lat": 25.0888058, "name": "ECLAT-V (TAIPEI)", "address": "No 28 Wu Chuan Rd, Taipei, Taipei, 248", "country_code": "TW", "country_name": "Taiwan", "has_approved_claim": false, "is_closed": null}, {"os_id": "HN2019085STAQCF", "lon": -87.9040571, "lat": 15.4321163, "name": "EL BARON", "address": "ZONA LIBRE EL CARMEN, COLONIA UNIVERSAL SEGUN CALLLE CARRETERA VIEJA A LA LIMA SAN PEDRO SULA CORTES ", "country_code": "HN", "country_name": "Honduras", "has_approved_claim": false, "is_closed": null}, {"os_id": "GB2022065437SKM", "lon": -0.2715527, "lat": 52.6001082, "name": "Eleather", "address": "Kingsbridge Centre , Peterborough, Peterborough, PE3 8TZ", "country_code": "GB", "country_name": "United Kingdom", "has_approved_claim": false, "is_closed": null}, {"os_id": "VN2021139ASN25N", "lon": 106.7172431, "lat": 10.8619503, "name": "ELITE INVESTMENT WORLDWIDE CO  LTD", "address": "1657/3E NATIONAL ROAD 1A, AN PHU DONG WARD, DISTRICT 12, HO CHI MINH, HO CHI MINH", "country_code": "VN", "country_name": "Vietnam", "has_approved_claim": false, "is_closed": null}, {"os_id": "VN2019098MXNYW1", "lon": 106.7057733, "lat": 10.8596614, "name": "ELITE INVESTMENT WORLDWIDE COMPANY LIMTED", "address": "1165, 1A Nation Road, An Phu Dong Ward,,12 District,,Ho Chi Minh City,Thanh pho Ho Chi Minh,Vietnam", "country_code": "VN", "country_name": "Vietnam", "has_approved_claim": false, "is_closed": null}, {"os_id": "TH2019085MFGEJ8", "lon": 100.7242439, "lat": 13.7174836, "name": "ELTA COMPANY LIMITED", "address": "511 LADKRABANG ROAD LADKRABANG BANGKOK 10520", "country_code": "TH", "country_name": "Thailand", "has_approved_claim": false, "is_closed": null}, {"os_id": "CN201908757H57N", "lon": 112.305145, "lat": 22.183206, "name": "En Ping Kam Hing Textile and Dyeing Co.,Ltd", "address": "No.68 Enzhou Industrial Avenue", "country_code": "CN", "country_name": "China", "has_approved_claim": false, "is_closed": null}, {"os_id": "VN2022065MV1SZX", "lon": 106.732727, "lat": 10.9253625, "name": "Esquel Garment Manufacturing (Vietnam) Company Limited ", "address": "No 9, Street 5, Vietnam Singapore Industrial Park I, Binh Hoa Ward, Thuan An City, Binh Duong Province, Vietnam, Postal code: 590000", "country_code": "VN", "country_name": "Vietnam", "has_approved_claim": false, "is_closed": null}, {"os_id": "VN2019085YK3HKN", "lon": 107.0421324, "lat": 10.6288504, "name": "E-TOP (VIETNAM) CO.,LTD", "address": "LOT IX-1, IX-2, IX-3, IX-4 MY XUAN VILLAGE, TAN THANH DISTRICT BA RIA \u2013 VUNG TAU PROVINCE", "country_code": "VN", "country_name": "Vietnam", "has_approved_claim": false, "is_closed": null}, {"os_id": "KR20220651YP5S1", "lon": 128.8911057, "lat": 35.2213923, "name": "EUN SUNG GLOBAL CO LTD (KOREA)", "address": "39 DONGBUK RO 473 BEON GIL, Gimhae, Gyeongnam, Gyeongsangnamdo, 621 010", "country_code": "KR", "country_name": "Korea, Republic of", "has_approved_claim": false, "is_closed": null}, {"os_id": "VN2020114TBNQ21", "lon": 107.9887402, "lat": 16.2540793, "name": "EVA OVERSEAS INTERNATIONAL LTD", "address": "PROVINCIAL ROAD 835A, HAMLET LOC TIEN, MY LOC WARD, LONG AN PROVINCE, LONG AN, 850000, VIETNAM", "country_code": "VN", "country_name": "Vietnam", "has_approved_claim": false, "is_closed": null}, {"os_id": "TW20190852CBQF3", "lon": 120.3723741, "lat": 23.0893067, "name": "EVEREST TEXTILE", "address": "NO.256, MINGHE VIL., SHANSHANG DIST. TAINAN CITY T'AI-WAN 74342", "country_code": "TW", "country_name": "Taiwan", "has_approved_claim": false, "is_closed": null}, {"os_id": "CN2019085BGR805", "lon": 121.53578, "lat": 30.852457, "name": "EVEREST TEXTILE CHINA", "address": "NO.197 BAISHA ROAD, XINGHUO DEVELOPMENT ZONE, FENGXIAN SHANGHAI SHANGHAI 201419", "country_code": "CN", "country_name": "China", "has_approved_claim": false, "is_closed": null}, {"os_id": "TH2019085NVHV2K", "lon": 100.55798, "lat": 13.8329402, "name": "EVEREST TEXTILE CO., LTD. ", "address": "49 7001, TALANAD WATSOIFA ROAD, BANMUANG SUBDISTRICT RATCHABURI CENTRAL 70110", "country_code": "TH", "country_name": "Thailand", "has_approved_claim": false, "is_closed": null}, {"os_id": "TH2022083H3PVH3", "lon": 99.8752403, "lat": 13.8110781, "name": "EVEREST TEXTILES THAILAND-V", "address": "49 Moo 1 Taladnadwatsoifa Road , Banpong, Ratchaburi, 70110", "country_code": "TH", "country_name": "Thailand", "has_approved_claim": false, "is_closed": null}, {"os_id": "US20190855JWADB", "lon": -122.9150939, "lat": 45.5259081, "name": "EVERGREEN APPAREL MFG.", "address": "845 NW 231ST AVE. HILLSBORO OREGON 97124", "country_code": "US", "country_name": "United States", "has_approved_claim": false, "is_closed": null}, {"os_id": "KH2022065MCDGZ0", "lon": 104.8868196, "lat": 11.5653675, "name": "EVERMAX GARMENT ACCESSORIES (CAMBODIA) CO LTD", "address": "No 430 Phlov Lum Kok Chambork Sangkat Chaom Chao, Phnom Penh, Phnom Penh, 12452", "country_code": "KH", "country_name": "Cambodia", "has_approved_claim": false, "is_closed": null}, {"os_id": "VN2019143YQ6M3A", "lon": 106.754437, "lat": 10.972938, "name": "Ever Tech Plastic Vietnam Co., Ltd", "address": "My Hiep Ward, Thai Hoa Town, Tan Uyen District Binh Duong Province n/a Binh Duong Vietnam", "country_code": "VN", "country_name": "Vietnam", "has_approved_claim": false, "is_closed": null}, {"os_id": "IT2020191ZRFZP7", "lon": 10.724925, "lat": 43.844838, "name": "Facopel Produzione s.r.l.", "address": "Via Della Lama 15/A, Chiesina Uzzanese", "country_code": "IT", "country_name": "Italy", "has_approved_claim": false, "is_closed": null}, {"os_id": "IN2019085Z5GW33", "lon": 78.4109463, "lat": 12.3017989, "name": "FAIRWAY ENTERPRISES COMPANY LIMITED", "address": "SIPCOT INDUSTRIAL COMPLEX, BARGUR AT POCHAMPALLI UTHANGARAI TALUK TAMIL NADU PIN 635304", "country_code": "IN", "country_name": "India", "has_approved_claim": false, "is_closed": null}, {"os_id": "IN2022065P2KSM0", "lon": 78.4069732, "lat": 12.2595091, "name": "Fairway Enterprises Company Ltd (India Branch) - Unit 1 ", "address": "Plot no G 1B SIPCOT Industrial Complex, KRISHNAGIRI, Tamil Nadu, 635304", "country_code": "IN", "country_name": "India", "has_approved_claim": false, "is_closed": null}, {"os_id": "HR2019085D9AYJ3", "lon": 13.5739631, "lat": 45.3260447, "name": "FA.IS.A. D.O.O.", "address": "SVETI VIDAL 32 B NOVIGRAD ISTRIA 52466", "country_code": "HR", "country_name": "Croatia", "has_approved_claim": false, "is_closed": null}, {"os_id": "CN2019093WZSXE8", "lon": 120.6670222, "lat": 31.2046982, "name": "FAR EASTERN", "address": "#1588, YINZHONG\u00a0 S. ROAD JIANG SU JIANGSU 215124", "country_code": "CN", "country_name": "China", "has_approved_claim": false, "is_closed": null}, {"os_id": "VN2020114GBNA6E", "lon": 106.705813, "lat": 11.156187, "name": "FAR EASTERN APPAREL (HOLDING) LIMITED VIETNAM", "address": "ST. 32, 12A VSIP II-A, BINH DUONG, B\u00ccNH DUONG, 820000, VIETNAM", "country_code": "VN", "country_name": "Vietnam", "has_approved_claim": false, "is_closed": null}, {"os_id": "CN2019083CS0EQJ", "lon": 120.6336265, "lat": 31.245217, "name": "Far Eastern Apparel (Suzhou) Co. Ltd", "address": "88,Tian Ling Road.,SuZhou", "country_code": "CN", "country_name": "China", "has_approved_claim": false, "is_closed": null}, {"os_id": "VN2020016B5NPHV", "lon": 106.737437, "lat": 10.935313, "name": "FAR EASTERN APPAREL (VIETNAM) LTD.", "address": "46, Freedom Avenue, Vietnam-Singapore Industrial Park , Binh Duong Province, 72000", "country_code": "VN", "country_name": "Vietnam", "has_approved_claim": false, "is_closed": null}, {"os_id": "VN2019318A8P7HW", "lon": 106.881687, "lat": 11.476938, "name": "Far Eastern New Apparel (Viet Nam) Limited", "address": "D1 St., Bac Dong Phu Industrial Park , Tan Phu Town, Dong Phu District, Binh Phuoc", "country_code": "VN", "country_name": "Vietnam", "has_approved_claim": false, "is_closed": null}, {"os_id": "TW2019085FK2HTK", "lon": 121.234217, "lat": 25.0796514, "name": "FAR EASTERN NEW CENTURY CORPORATION", "address": "NO.1, GUOJIAN 2ND RD., GUANYIN TOWNSHIP, TAOYUAN COUNTY 328, TAIWAN TAOYUAN T'AI-PEI 618-820", "country_code": "TW", "country_name": "Taiwan", "has_approved_claim": false, "is_closed": null}, {"os_id": "VN2022073Y1DVZT", "lon": 106.6432128, "lat": 11.227316, "name": "FAR EASTERN POLYTEX (VIETNAM) LTD", "address": "Land Lot B 5B CN Road DC, Bau Bang District, B\u00ecnh Duong, 75000", "country_code": "VN", "country_name": "Vietnam", "has_approved_claim": false, "is_closed": null}, {"os_id": "VN2022101EKM5W2", "lon": 106.8563612, "lat": 10.9180552, "name": "Fashion Garments 2 Co,Ltd-Unit 1", "address": "ROAD 3, BIEN HOA INDUSTRIAL ZONE I, BIEN HOA, Dong Nai Province, 076000", "country_code": "VN", "country_name": "Vietnam", "has_approved_claim": false, "is_closed": null}, {"os_id": "VN20221018BZT80", "lon": 106.8752919, "lat": 10.9529632, "name": "Fashion Garments 2 Co,Ltd-Unit 2", "address": "LOT 4, 13A STRESS, BIEN HOA II INDUSTRIL PARK, LONG BINH WARD, BIEN HOA, Dong Nai Province, 076000", "country_code": "VN", "country_name": "Vietnam", "has_approved_claim": false, "is_closed": null}, {"os_id": "VN2019085B7T4XA", "lon": 107.3410716, "lat": 10.8266178, "name": "FASHION GARMENTS 2 CO., LTD - XUAN TAY", "address": "STREET 1, XUAN TAY COMMUNE, CAM MY DISTRICT, DONG NAI PROVINCE, VIETNAM XUAN TAY DONG NAI", "country_code": "VN", "country_name": "Vietnam", "has_approved_claim": false, "is_closed": null}, {"os_id": "PH20220652VFSHZ", "lon": 123.9145862, "lat": 10.3064153, "name": "FEEDER APPAREL INC.", "address": "Block D5 4th Street Corner 3rd Avenue, Lapu-Lapu City, Cebu, 6015", "country_code": "PH", "country_name": "Philippines", "has_approved_claim": false, "is_closed": null}, {"os_id": "TW2019085793854", "lon": 120.5054917, "lat": 23.7172355, "name": "FENG TAY ENTERPRISE CO., LTD", "address": "NO. 52 KEGONG 8TH RD., DOU LIOU YUNLIN COUNTY 64064", "country_code": "TW", "country_name": "Taiwan", "has_approved_claim": false, "is_closed": null}, {"os_id": "EC2019085T9ZJE3", "lon": -78.4794433, "lat": -0.1125619, "name": "FIBRAN CIA. LTDA.", "address": "PANAMERICANA NORTE KM 5 1/2 QUITO PICHINCHA", "country_code": "EC", "country_name": "Ecuador", "has_approved_claim": false, "is_closed": null}, {"os_id": "TR20190832NYHNR", "lon": 29.0750971, "lat": 40.2531112, "name": "F.\u0130.T.A.TEKS. KONF. SAN. T\u0130C. LTD. \u015eT\u0130.", "address": "PANAYIR MH. 6. SELVILI SK.NO.55, OSMANGAZ\u0130, BURSA", "country_code": "TR", "country_name": "T\u00fcrkiye", "has_approved_claim": false, "is_closed": null}, {"os_id": "US2019085DYWE4T", "lon": -122.8253864, "lat": 45.1595788, "name": "FJORD, LTD.", "address": "3099 N.PACIFIC HIGHWAY. SUITE 100 WOODBURN OREGON 97071", "country_code": "US", "country_name": "United States", "has_approved_claim": false, "is_closed": null}, {"os_id": "CN2019085GD6W8H", "lon": 113.276724, "lat": 22.17521, "name": "FLEXTRONICS MANUFACTURING (ZHUHAI) CO, LTD", "address": "XIN QING SCIENCE & TECHNOLOGY INDUSTRIAL PARK ZHUHAI GUANGDONG 519180", "country_code": "CN", "country_name": "China", "has_approved_claim": false, "is_closed": null}, {"os_id": "DE2019085ESEE9E", "lon": 10.0800927, "lat": 49.1382858, "name": "FLOCKEREI S & R", "address": "NEUWEG 7, GOLDBACHER STR. 81, 74564 CRAILSHEIM SATTELDORF - GRONINGEN BADEN-WURTTEMBERG 74589", "country_code": "DE", "country_name": "Germany", "has_approved_claim": false, "is_closed": null}, {"os_id": "KH2019085PWFWGS", "lon": 104.9220943, "lat": 11.5605899, "name": "FOOTMARK(CAMBODIA)CORPORATION", "address": "SANGKAT KANTOUK,  KHAN POSENCEY PHNOM PENH KANDAL ", "country_code": "KH", "country_name": "Cambodia", "has_approved_claim": false, "is_closed": null}, {"os_id": "TW2019085FMVTC8", "lon": 120.5854674, "lat": 23.959574, "name": "FOREST LEATHER", "address": "NO. 36-56, TIEN CHUNG YANG LANE, CHUNG YANG LI, YUAN LIN CHEN YUAN-LIN CHEN T'AI-WAN 510", "country_code": "TW", "country_name": "Taiwan", "has_approved_claim": false, "is_closed": null}, {"os_id": "ID20190857Y1C91", "lon": 110.629705, "lat": -7.0510719, "name": "FORMOSA INDONESIA COMPANY LIMITED", "address": "JL. RAYA SEMARANG-PUWODADI KM. 26.5 SEMARANG JAKARTA 58165", "country_code": "ID", "country_name": "Indonesia", "has_approved_claim": false, "is_closed": null}, {"os_id": "CN20190857M159M", "lon": 113.8717277, "lat": 23.1326644, "name": "FORMOSA LUGGAGE MANUFACTURING CO.LTD.", "address": "HONGMING ROAD, HUSHAN VILLAGE HUIZHOU GUANGDONG 516127", "country_code": "CN", "country_name": "China", "has_approved_claim": false, "is_closed": null}, {"os_id": "CN2022064E0XBXM", "lon": 120.8307684, "lat": 31.6137931, "name": "FORMOSA TAFFETA(CHANGSHU) CO., LTD", "address": "NO.15, PENGHU RD., SOUTHEAST ST., CHANGSHU CITY, SUZHOU, Jiangsu, 215500", "country_code": "CN", "country_name": "China", "has_approved_claim": false, "is_closed": null}, {"os_id": "TW2019085NKMQF6", "lon": 120.5409089, "lat": 23.7077947, "name": "FORMOSA TAFFETA CO., LTD", "address": "317 SHU LIU RD. TOULIU  640", "country_code": "TW", "country_name": "Taiwan", "has_approved_claim": false, "is_closed": null}, {"os_id": "CN201908550E175", "lon": 120.831222, "lat": 31.613596, "name": "FORMOSA TAFFETA CO., LTD (CHINA)", "address": "NO.1 PENGHU ROAD, SOUTHEAST ECONOMY DEVELOPMENT ZONE CHANGSHU JIANGSU 215500", "country_code": "CN", "country_name": "China", "has_approved_claim": false, "is_closed": null}, {"os_id": "VN2019085Q38HCW", "lon": 106.4920069, "lat": 10.6359596, "name": "FORMOSA TAFFETA, CO LTD VIETNAM", "address": "SECTION 1, NHUT CHANH COM., BEN LUC DIST., LONG AN PROV. BEN LUC LONG AN", "country_code": "VN", "country_name": "Vietnam", "has_approved_claim": false, "is_closed": null}, {"os_id": "VN2020053FB268T", "lon": 106.9351126, "lat": 10.7010911, "name": "Formosa Taffeta Dong Nai Co., Ltd", "address": "Nhon Trach 3 Industrial Park, Hiep Phuoc Ward, Nhon Trach District, Dong Nai Province, Vietnam Bien Hoa Dong Nai Province ", "country_code": "VN", "country_name": "Vietnam", "has_approved_claim": false, "is_closed": null}, {"os_id": "TW20220825V85EP", "lon": 120.5691571, "lat": 23.9817476, "name": "FORMOSA TING SHO ENT CO LTD (TAIWAN)", "address": "NO 37 SEC 2 ZHONGSHAN RD DACUN, Changhua, Changhua, 515", "country_code": "TW", "country_name": "Taiwan", "has_approved_claim": false, "is_closed": null}, {"os_id": "KR201908523DWAE", "lon": 127.0758272, "lat": 36.9305809, "name": "FRAMAS KOREA", "address": "120-2, UNYONG-RI, DOONPO-MYUN, ASAN CHOONGNAM 336-875", "country_code": "KR", "country_name": "Korea, Republic of", "has_approved_claim": false, "is_closed": null}, {"os_id": "VN20190934D9JX5", "lon": 106.9447146, "lat": 10.7782801, "name": "FRAMAS KOREA VINA CO., LTD", "address": "WORKSHOP#2~4, LONGTHANH I.P, LONGTHANH DISTRICT DONG NAI DONG NAI 815300", "country_code": "VN", "country_name": "Vietnam", "has_approved_claim": false, "is_closed": null}, {"os_id": "VN2019085Y3RB23", "lon": 106.768438, "lat": 10.867188, "name": "FREETREND VN INDUSTRIAL CO.LTD.", "address": "SAIGON LINH TRUNG EXPORT PROCESSING ZONE, THU DUC HO CHI MINH  84-083", "country_code": "VN", "country_name": "Vietnam", "has_approved_claim": false, "is_closed": null}, {"os_id": "GB2019085S596M3", "lon": -4.0924007, "lat": 50.42194509999999, "name": "FRONTLINE IMAGE LIMITED", "address": "10, SISNA PARK ROAD, ESTOVER PLYMOUTH ENGLAND PL6 7FH", "country_code": "GB", "country_name": "United Kingdom", "has_approved_claim": false, "is_closed": null}, {"os_id": "CN2021139TGV9R9", "lon": 118.119271, "lat": 24.704862, "name": "FUJIAN FYNEX GARMENT LIMITED LIABILITY COMPANY - XIAMEN BRANCH", "address": "NO.175 JI AN ROAD TONGAN DISTRICT XIAMEN CITY, XIAMEN, FUJIAN", "country_code": "CN", "country_name": "China", "has_approved_claim": false, "is_closed": null}, {"os_id": "CN2019093V59BPK", "lon": 119.0701866, "lat": 25.5049143, "name": "FUJIAN LIFENG FOOTWEAR CO., LTD.", "address": "NO.888# QINXI NORTH STREET, WUTANG TOWN PUTIAN FUJIAN 351119", "country_code": "CN", "country_name": "China", "has_approved_claim": false, "is_closed": null}, {"os_id": "CN2019085KR7MXD", "lon": 119.359635, "lat": 26.001889, "name": "FUJIAN SAN FENG FOOTWEAR CO.,LTD", "address": "NO. 399, CHENGMEN STREET, CHENGMEN TOWN, CANGSHAN DISTRICTS FUZHOU FUJIAN 350018", "country_code": "CN", "country_name": "China", "has_approved_claim": false, "is_closed": null}, {"os_id": "CN2019085PS0MXA", "lon": 119.0429816, "lat": 25.4850752, "name": "FUJIAN XIEFENG FOOTWEAR CO.,LTD.", "address": "XI TIAN WEI TOWN,LICHENG DISTRIC PUTIAN FUJIAN 351131", "country_code": "CN", "country_name": "China", "has_approved_claim": false, "is_closed": null}, {"os_id": "JP2020114JKPKZH", "lon": 136.1571462, "lat": 36.031515, "name": "FUKUI", "address": "45-163, SHIMIZUSUGITANI-CHO, FUKUI, HUKUI, 910-3607, JAPAN", "country_code": "JP", "country_name": "Japan", "has_approved_claim": false, "is_closed": null}, {"os_id": "VN2019085MVNV0W", "lon": 106.6586052, "lat": 10.6227405, "name": "FU-LUH SHOES CO., LTD", "address": "TAN KIM WARD, CAN GIUOC DISTRICT LONG AN LONG AN 81991", "country_code": "VN", "country_name": "Vietnam", "has_approved_claim": false, "is_closed": null}, {"os_id": "CN2019085PWR0D1", "lon": 119.371062, "lat": 25.721589, "name": "FUQING TUNTEX GARMENT, CO. LTD (MDC)", "address": "RONGQIAO INDUCTRIAL ZONE, QUINGHUNG RD FUQING FUJIAN 350301", "country_code": "CN", "country_name": "China", "has_approved_claim": false, "is_closed": null}, {"os_id": "TH201908589BB0W", "lon": 100.5364684, "lat": 13.7060823, "name": "FUTURE GARMENT CO., LTD", "address": "211/18-26, NONSEE, CHONGNONSEE BANGKOK BANGKOK METROPOLIS 10120", "country_code": "TH", "country_name": "Thailand", "has_approved_claim": false, "is_closed": null}, {"os_id": "VN20190851570T4", "lon": 106.3191905, "lat": 11.1370942, "name": "GAIN LUCKY", "address": "NO\u00a0 40-6, N14 STREET, PHUOC DONG INDUSTRIAL PARK, PHUOC DONG WARD, GO DAU DISTRICT, TAY NINH PROVINCE PHUOC DONG TAY NINH", "country_code": "VN", "country_name": "Vietnam", "has_approved_claim": false, "is_closed": null}, {"os_id": "IT202113944QMNQ", "lon": 8.7335137, "lat": 45.2512213, "name": "GALLO TESSILE SRL.", "address": "CORSO PIAVE, 11, MORTARA, PAVIA", "country_code": "IT", "country_name": "Italy", "has_approved_claim": false, "is_closed": null}, {"os_id": "KR2022065TC7B4A", "lon": 128.9805666, "lat": 35.2122157, "name": "GB LIGHT CO LTD", "address": "22 Beombang 3ro 30beon gil , Gangseo Gu, Busan Gwangyeogsi, 46727", "country_code": "KR", "country_name": "Korea, Republic of", "has_approved_claim": false, "is_closed": null}, {"os_id": "KR2019093DT70KP", "lon": 128.8555626, "lat": 35.0882764, "name": "GB LIGHT (KOREA)", "address": "#1733-4 SONGJEONG-DONG,KANGSEO-GU, BUSAN, KOREA BUSAN BUSAN 618-820", "country_code": "KR", "country_name": "Korea, Republic of", "has_approved_claim": false, "is_closed": null}, {"os_id": "VN2019085RB9K51", "lon": 106.675313, "lat": 11.101063, "name": "GB LIGHT (VIETNAM)", "address": "B2.7, ROAD NO. D1, DONG AN 2 IP, HOA PHU WARD THU DAU MOT BINH DUONG 0", "country_code": "VN", "country_name": "Vietnam", "has_approved_claim": false, "is_closed": null}, {"os_id": "IT2020191EKF4TT", "lon": 9.0186311, "lat": 45.7717422, "name": "G.B. SRL", "address": "VIA MONTE BIANCO, 1, VILLA GUARDIA", "country_code": "IT", "country_name": "Italy", "has_approved_claim": false, "is_closed": null}, {"os_id": "VN2019085QW38YS", "lon": 108.3378561, "lat": 15.775141, "name": "GERMTON INDUSTRIAL COMPANY LTD.", "address": "DONG QUE SON IP, HUONG AN COMMUNE, QUE SON DISTRICT, QUANG NAM PROVINCE HUONG AN COMMUNE QUANG NAM ", "country_code": "VN", "country_name": "Vietnam", "has_approved_claim": false, "is_closed": null}, {"os_id": "IT2021139VK32Y0", "lon": 12.0451863, "lat": 43.6657742, "name": "GHERARDI SRL", "address": "VIA CANONICO COUPERS, 11, PIEVE SANTO STEFANO, AREZZO", "country_code": "IT", "country_name": "Italy", "has_approved_claim": false, "is_closed": null}, {"os_id": "IT20201140W4H0R", "lon": 18.1614311, "lat": 40.0113573, "name": "GIANEL SHOES SRL", "address": "ZONA INDUSTRIALE, CASARANO, LECCE, 73042, ITALY", "country_code": "IT", "country_name": "Italy", "has_approved_claim": false, "is_closed": null}, {"os_id": "HN2019098FPNCYQ", "lon": -87.9371568, "lat": 15.6887732, "name": "Gildan Activewear Honduras Textile (HONTEX)", "address": "Zip San Miguel,VI Road to Puerto Cortes,Kil. 15.5,Rio Nance,Cortes,Honduras", "country_code": "HN", "country_name": "Honduras", "has_approved_claim": false, "is_closed": null}, {"os_id": "HN2019098H8J918", "lon": -87.9285777, "lat": 15.825072, "name": "Gildan Activewear San Miguel", "address": "Parque Industrial Zoli America ,Carretera a Puerto Cortes, Km 6 ,Contiguo a Kativo de Honduras,Choloma,Cortes,Honduras", "country_code": "HN", "country_name": "Honduras", "has_approved_claim": false, "is_closed": null}, {"os_id": "HN2020349BYK9VA", "lon": -87.9879844, "lat": 15.3224055, "name": "Gildan Activewear Villanueva", "address": "Zip Villanueva, Edificios #6, #9 y #10-1, Colonia La Victoria, Carretera a Tegucigalpa, Villanueva, Cortes Villanueva", "country_code": "HN", "country_name": "Honduras", "has_approved_claim": false, "is_closed": null}, {"os_id": "HN2019085AJ2C2V", "lon": -87.9371568, "lat": 15.6887732, "name": "GILDAN HOSIERY RIO NANCE S DE R.L. (RN4)", "address": "ZIP SAN MIGUEL VI, RIO NANCE CHOLOMA YORO 0", "country_code": "HN", "country_name": "Honduras", "has_approved_claim": false, "is_closed": null}, {"os_id": "GR2019085WAAMB1", "lon": 23.7204376, "lat": 37.9903248, "name": "GKOGKAS LAMPROS", "address": "PSILORITI 28 ATHENS CENTRAL GREECE & EVVOIA 13341", "country_code": "GR", "country_name": "Greece", "has_approved_claim": false, "is_closed": null}, {"os_id": "US2020296W380Y2", "lon": -80.8297774, "lat": 35.2125829, "name": "Global Sales & Warehousing", "address": "1500 East Third St", "country_code": "US", "country_name": "United States", "has_approved_claim": false, "is_closed": null}, {"os_id": "CN20190854XNCP2", "lon": 113.464936, "lat": 22.692668, "name": "GOLD LONG JOHN CHINA", "address": "NO. 95, GAOPING AVE.  ZHONGSHAN GUANGDONG 528400", "country_code": "CN", "country_name": "China", "has_approved_claim": false, "is_closed": null}, {"os_id": "ID2022065RWAFX8", "lon": 107.50274, "lat": -6.8958627, "name": "GOLD LONG JOHN (INDONESIA)", "address": "Jl Raya Batujajar KM 3 5 desa giriasih, Kecamatan Batujajar, Jawa Barat, 40561", "country_code": "ID", "country_name": "Indonesia", "has_approved_claim": false, "is_closed": null}, {"os_id": "TW2022065GE5BKX", "lon": 120.5238238, "lat": 23.8803926, "name": "GOLD LONG JOHN (TR1) (TAIWAN)", "address": "NO350  Fuxing Rd  Beidou Township, Changhua, Changhua, 52147 / 51341", "country_code": "TW", "country_name": "Taiwan", "has_approved_claim": false, "is_closed": null}, {"os_id": "VN20220659RT96Z", "lon": 106.918312, "lat": 10.722437, "name": "GOLD LONG JOHN (VIETNAM)", "address": "LOT NO 7 ROAD 5A  NHON TRACH 2 INDUSTRIAL ZONE , Dong Nai, \u00d0ng Nai, 815956", "country_code": "VN", "country_name": "Vietnam", "has_approved_claim": false, "is_closed": null}, {"os_id": "VN2022065DAW0R0", "lon": 106.914938, "lat": 10.730187, "name": "Gold Long John (Vietnam 2nd location)", "address": "Road 25B, Nhon Trach 2 Industrial Zone, Nhon Trach, Da Nang-- thanh ph", "country_code": "VN", "country_name": "Vietnam", "has_approved_claim": false, "is_closed": null}, {"os_id": "RO2019093DWHRW7", "lon": 27.9594714, "lat": 45.2652463, "name": "GRECALE IMPEX SRL", "address": "STRADA H. I. RADULESCU #46 MACIN BRAILA 825300", "country_code": "RO", "country_name": "Romania", "has_approved_claim": false, "is_closed": null}, {"os_id": "VN2022257MFMW5G", "lon": 107.174563, "lat": 10.580687, "name": "GREENTECH HEADGEAR COMPANY LIMITED (Factory 2)", "address": "D02 Street, Chau Duc Industrial Zone, Nghia Thanh Commune, Chau Duc District,Ba Ria - Vung Tau,Vietnam", "country_code": "VN", "country_name": "Vietnam", "has_approved_claim": false, "is_closed": null}, {"os_id": "VN2019085ZFGA16", "lon": 106.3538964, "lat": 10.4812776, "name": "GREEN TG CO., LTD", "address": "LOT AIII-11, TAN HUONG INDUSTRIAL PARK TIEN GIANG TIEN GIANG 82000", "country_code": "VN", "country_name": "Vietnam", "has_approved_claim": false, "is_closed": null}, {"os_id": "VN2021305M16FKE", "lon": 106.728938, "lat": 10.921938, "name": "GREEN VINA CO., LTD.", "address": "BINH DANG QUARTER, BINH HOA WA THUAN AN DISTRICT, BINH DUONG 59000   VN", "country_code": "VN", "country_name": "Vietnam", "has_approved_claim": false, "is_closed": null}, {"os_id": "CN20201916YD6PD", "lon": 116.4416, "lat": 23.255954, "name": "Guangdong Glory Textile Enterprise Co., Ltd.", "address": "Heping Xiacuo Industrial Park,\nChaoyang District\nShantou, Shantou", "country_code": "CN", "country_name": "China", "has_approved_claim": false, "is_closed": null}, {"os_id": "CN2019085THXJTY", "lon": 112.944495, "lat": 23.6873, "name": "GUANG YANG SPORTING CO., LTD", "address": "SHAN TANG INDUSTRIAL ZONE, DI DI VILLAGE, SHAN TANG TOWN, QING XIN COUNTY QING YUAN GUANGDONG 511800", "country_code": "CN", "country_name": "China", "has_approved_claim": false, "is_closed": null}, {"os_id": "VN2019085PTP8N0", "lon": 106.635025, "lat": 10.613144, "name": "GUANG YANG WORLDWIDE CORPORATION CO. LTD.", "address": "PROVINCIAL ROAD 835A, HAMLET LOC TIEN, MY LOC WARD LONG AN PROVINCE LONG AN 81000", "country_code": "VN", "country_name": "Vietnam", "has_approved_claim": false, "is_closed": null}, {"os_id": "US202113926VRRD", "lon": -73.4153533, "lat": 40.7504177, "name": "GUARDLAB INC", "address": "171 MILBAR BLVD, FARMINGDALE, NEW YORK", "country_code": "US", "country_name": "United States", "has_approved_claim": false, "is_closed": null}, {"os_id": "US201908593MBET", "lon": -89.0664487, "lat": 42.2529534, "name": "GUERILLA GRAFFIX", "address": "1902 BROADWAY ST ROCKFORD ILLINOIS 61104", "country_code": "US", "country_name": "United States", "has_approved_claim": false, "is_closed": null}, {"os_id": "CN2022040G1SZ48", "lon": 119.2548596, "lat": 25.5050528, "name": "Haian Textile Printing & Dyeing (Fuqing) Co.,Ltd", "address": "Jiangyin Industrial Zone\uff0cFuqing,Fujian", "country_code": "CN", "country_name": "China", "has_approved_claim": false, "is_closed": null}, {"os_id": "CN201908527SHA7", "lon": 120.793788, "lat": 30.500652, "name": "HAIYAN GOLDEN GATE SOCKS INDUSTRY CO., LTD", "address": "TONG YUAN TOWN, ZHANG QIAO VILLAGE HAIYAN ZHEJIANG ", "country_code": "CN", "country_name": "China", "has_approved_claim": false, "is_closed": null}, {"os_id": "VN2019085Q802JG", "lon": 105.806601, "lat": 20.990983, "name": "Ha Noi Garment No.40 Joint Stock Company", "address": "88 Hadinh, Thanh Xuan Dist, Hanoi, Vietnam Ha Noi", "country_code": "VN", "country_name": "Vietnam", "has_approved_claim": false, "is_closed": null}, {"os_id": "US2019085FCJ19R", "lon": -75.4974683, "lat": 40.5366586, "name": "HAPCO SCREEN PRINTING", "address": "546-548 ELM STREET EMMAUS, PENNSYLVANIA 18049", "country_code": "US", "country_name": "United States", "has_approved_claim": false, "is_closed": null}, {"os_id": "JP20190855XMPXW", "lon": 135.7177574, "lat": 35.0469111, "name": "HAYAFUJI", "address": "96-9, HARADANIINUI-CHO, OOKITAYAMA KYOTO-SHI KYOTO-FU 603-8487", "country_code": "JP", "country_name": "Japan", "has_approved_claim": false, "is_closed": null}, {"os_id": "LK2019087Z3R56Q", "lon": 80.078675, "lat": 6.6248554, "name": "Hayleys Fabric PLC", "address": "Narthupana Estate, Neboda, Sri Lanka", "country_code": "LK", "country_name": "Sri Lanka", "has_approved_claim": true, "is_closed": null}, {"os_id": "HN2019085S5BSM5", "lon": -88.023771, "lat": 15.4828783, "name": "HB SPORTS - NEW HOLLAND LINGERIE DE HONDURAS, S.A.", "address": "27 CALLE 1 Y 3 AVENIDA, BARRIO LA PAZ SAN PEDRO SULA CORTES CA", "country_code": "HN", "country_name": "Honduras", "has_approved_claim": false, "is_closed": null}, {"os_id": "CN20201148QHCPD", "lon": 112.886785, "lat": 22.655715, "name": "HESHAN TOP EAGLE GARMENT LTD", "address": "DISTRICT 3 OF HECHENG INDUSTRIAL PARK, HESHAN, GUANGDONG, 529727, CHINA", "country_code": "CN", "country_name": "China", "has_approved_claim": false, "is_closed": null}, {"os_id": "VN2022065QHBM95", "lon": 106.178796, "lat": 21.1383833, "name": "HESHENG CO., LTD.", "address": "Lot G14 Que Vo Industrial Park expansion, Bac Ninh, Bc Ninh, 16852", "country_code": "VN", "country_name": "Vietnam", "has_approved_claim": false, "is_closed": null}, {"os_id": "US2019085NDY64B", "lon": -117.2271001, "lat": 33.1511524, "name": "H&H SCREENING & GRAPHICS INC.", "address": "2388 LA MIRANDA DR. VISTA CALIFORNIA 92081", "country_code": "US", "country_name": "United States", "has_approved_claim": false, "is_closed": null}, {"os_id": "JP201908595WZRM", "lon": 139.7326223, "lat": 35.7930414, "name": "HIGUCHI KABAN KOBO", "address": "2-4-18 MOTOGO SAITAMA SAITAMA 332-0011", "country_code": "JP", "country_name": "Japan", "has_approved_claim": false, "is_closed": null}, {"os_id": "KH2019085P3C4G5", "lon": 102.6539175, "lat": 13.695561, "name": "HI TECH APPAREL (CAMBODIA) CO., LTD", "address": "A35-36 POIPET5 O'NEANG SPECIAL ECONOMIC ZONE POIPET CITY KANDAL", "country_code": "KH", "country_name": "Cambodia", "has_approved_claim": false, "is_closed": null}, {"os_id": "TH2019085J46JMQ", "lon": 100.5226066, "lat": 13.6404186, "name": "HI TECH APPAREL CO LTD, BRANCH 70", "address": "5/18 SOI SUKSAWAT 70 SOI 5 MOO 12 TUMBON BANGKRU AMPHER PRAPRADANG BANGKRU SAMUTPRAKARN 10130", "country_code": "TH", "country_name": "Thailand", "has_approved_claim": false, "is_closed": null}, {"os_id": "TH201908525Q8ZT", "lon": 100.4714944, "lat": 13.6593419, "name": "HI-TECH APPAREL CO. LTD.(SOI91)", "address": "328 PRACHAUTTI ROAD, BANGMOD THUNGKOC BANGKOK BANGKOK 10140", "country_code": "TH", "country_name": "Thailand", "has_approved_claim": false, "is_closed": null}, {"os_id": "TH2020114QJ0BF9", "lon": 103.5967226, "lat": 15.1062073, "name": "HI TECH APPAREL SURIN BRANCH", "address": "489 MOO 7, PATTAMANON (214) ROAD, THATOOM, 32120, THAILAND", "country_code": "TH", "country_name": "Thailand", "has_approved_claim": false, "is_closed": null}, {"os_id": "TH201908593H9YS", "lon": 102.0315161, "lat": 15.8067728, "name": "HI-TECH  CHAIYAPHUM  APPAREL CO.,LTD.", "address": "999 MOO 3 TUMBOL LADYAI, AMPHUR MUANG MUANG CHAIYAPHUM 36000", "country_code": "TH", "country_name": "Thailand", "has_approved_claim": false, "is_closed": null}, {"os_id": "TH2019085S33BRQ", "lon": 102.026135, "lat": 15.8675815, "name": "HI-TECH CHAIYAPHUM APPAREL CO.,LTD.", "address": "900 MOO 11,  TAMBOL  NASEIW MUANG CHAIYAPHUM 36000", "country_code": "TH", "country_name": "Thailand", "has_approved_claim": false, "is_closed": null}, {"os_id": "VN2019085TE5N54", "lon": 108.167, "lat": 15.8, "name": "HI-TECH VIET NAM APPAREL CO.,LTD.", "address": "BLOCK A3.2, TAY AN INDUSTRIAL ZONE, DUY TRUNG COMMUNE DUY XUYEN DISTRICT QUANG NAM 0", "country_code": "VN", "country_name": "Vietnam", "has_approved_claim": false, "is_closed": null}, {"os_id": "TH20211399P2R4B", "lon": 101.0863385, "lat": 12.7280066, "name": "HIT SUPHANBURI", "address": "295 MOO 1 DONKUMYAN, SUPHANBURI, SUPHAN BURI", "country_code": "TH", "country_name": "Thailand", "has_approved_claim": false, "is_closed": null}, {"os_id": "VN2020114ABQV6V", "lon": 106.6033695, "lat": 11.1306929, "name": "H&L APPAREL(VIETNAM) CO.,LTD", "address": "LOT D-11-CN, MY PHUOC 2 IP, MY PHUOC WARD, BEN CAT DISTRICT, B\u00ccNH DUONG, 590000, VIETNAM", "country_code": "VN", "country_name": "Vietnam", "has_approved_claim": false, "is_closed": null}, {"os_id": "TH2019085S9NCRG", "lon": 100.4986496, "lat": 13.6548085, "name": "HONG SENG KNITTING CO., LTD BRANCH THUNGKHU", "address": "519/16, 519/48-50, PRACHAUTHID, RD, TUNGKRU BANGKOK  10140", "country_code": "TH", "country_name": "Thailand", "has_approved_claim": false, "is_closed": null}, {"os_id": "TH2019085VNZ5Z8", "lon": 100.4932705, "lat": 13.6715304, "name": "HONG SENG KNITTING COMPANY LIMITED.", "address": "287,289  SUKSAWAD 30, SUKSAWAD ROAD, BANGPAKOK RATHJABURANA BANGKOK 10140", "country_code": "TH", "country_name": "Thailand", "has_approved_claim": false, "is_closed": null}, {"os_id": "VN2019085KGPGEM", "lon": 106.471703, "lat": 10.800562, "name": "HONG SENG THAI-VINA COMPANY LIMITED", "address": "LOT 19 ROAD 1ST , TAN DUC IZ, DUC HAO HA DUC HOA DISTRICT LONG AN Vietnam", "country_code": "VN", "country_name": "Vietnam", "has_approved_claim": false, "is_closed": null}, {"os_id": "CN2020114V36TPF", "lon": 113.8339589, "lat": 23.0394812, "name": "HONG SHENG LEATHER DONGGUAN IND. CO., LTD", "address": "WEN TANG INDUSTRY SECTION, DONG GUAN, GUANGDONG, 523121, CHINA", "country_code": "CN", "country_name": "China", "has_approved_claim": false, "is_closed": null}, {"os_id": "MY20190856GF7P1", "lon": 102.9640818, "lat": 1.8630868, "name": "HONSIN APPAREL SDN. BHD.", "address": "531 BATU 2 1/2 BATU PAHAT JOHOR 83000", "country_code": "MY", "country_name": "Malaysia", "has_approved_claim": false, "is_closed": null}, {"os_id": "CN201908536BE0C", "lon": 118.8258705, "lat": 34.1304774, "name": "HONWAYS APPAREL (SHUYANG) LIMITED", "address": "NO. 6, JIAXING ROAD EAST, SHUYANG ECONOMIC DEV ZONE JIANGSU PROVINCE JIANGSU 223600", "country_code": "CN", "country_name": "China", "has_approved_claim": false, "is_closed": null}, {"os_id": "GT2020029FPYMHJ", "lon": -90.5481048, "lat": 14.5805549, "name": "Hoosier Manufacturing, Ltd.", "address": "18 Avenida 37-41, Zona 12 (blank) (blank) Guatemala City 01012 Guatemala Guatemala", "country_code": "GT", "country_name": "Guatemala", "has_approved_claim": false, "is_closed": null}, {"os_id": "CN2022065S9J8MJ", "lon": 119.29, "lat": 25.2160999, "name": "HUA FENG (CHINA)", "address": "West side, Putian, Fujian, 351146", "country_code": "CN", "country_name": "China", "has_approved_claim": false, "is_closed": null}, {"os_id": "CN2022065T1GGQM", "lon": 118.8627477, "lat": 25.2456385, "name": "HUAFENG HAPTIC", "address": "GF Building D10, Hua Feng Sporting Goods Industrial Park, Putian, Fujian, 351144", "country_code": "CN", "country_name": "China", "has_approved_claim": false, "is_closed": null}, {"os_id": "CN20190857M6A6V", "lon": 119.078764, "lat": 25.367633, "name": "HUA FENG TEXTILE GROUP", "address": "HUANGSHI INDUSTRIAL ZONE, PUTIAN CITY, FUJIAN CHINA PUTIAN FUJIAN 351144", "country_code": "CN", "country_name": "China", "has_approved_claim": false, "is_closed": null}, {"os_id": "CN2022065M8KG23", "lon": 119.26618, "lat": 33.787723, "name": "Huaian Yuangtong Headwear Mfg Co Ltd", "address": "NO 30 YAN HUANG AVENUE, HUAI AN, Jiangsu, 223400", "country_code": "CN", "country_name": "China", "has_approved_claim": false, "is_closed": null}, {"os_id": "CN2021250D1DTN7", "lon": 119.2787399, "lat": 33.7862099, "name": "Huai An Yuan Tong Headwear Mfg. Co., Ltd.", "address": "No.30 & 32 & 99 Yan Huang Avenue, Lian Shui Economic Developmental District, Huaian ,Jiangsu", "country_code": "CN", "country_name": "China", "has_approved_claim": false, "is_closed": null}, {"os_id": "CN2019083TGYQ07", "lon": 112.2610126, "lat": 32.1320946, "name": "Hubei Sunsmile Footwear Co., Ltd.", "address": "No. 6 Shenzhen Avenue  Shenzhen Industrial Zone Xiangyang Economy Technology Development Zone XiangYang Hubei", "country_code": "CN", "country_name": "China", "has_approved_claim": false, "is_closed": null}, {"os_id": "CN2020114F4KPC3", "lon": 111.79589, "lat": 30.188114, "name": "HUBEI TOP EAGLE GARMENT LTD.", "address": "NO. 9 YONGXING ROAD, SONGZI HUBEI, HUBEI, 434200, CHINA", "country_code": "CN", "country_name": "China", "has_approved_claim": false, "is_closed": null}, {"os_id": "TW2019085FYKXDE", "lon": 121.193945, "lat": 25.0492632, "name": "HUGE BAMBOO", "address": "NO.2-8, GANGZAIZUI, DAYUAN DIST. TAOYUAN TAIWAN \u00a033753", "country_code": "TW", "country_name": "Taiwan", "has_approved_claim": false, "is_closed": null}, {"os_id": "CN2019093PZRV3M", "lon": 114.4345822, "lat": 22.8192765, "name": "HUIZHOU YANGMING INDUSTRIAL CO., LTD.", "address": "DA ZHONG TANG#1,XIA JIAO,HUIZHOU CITY GUANGDONG,CHINA HUIZHOU GUANGDONG 516001", "country_code": "CN", "country_name": "China", "has_approved_claim": false, "is_closed": null}, {"os_id": "VN2020016VWVFDX", "lon": 106.0787142, "lat": 20.9190334, "name": "HUNG LONG GARMENT & SERVICE JSC", "address": "NGUYEN VAN LINH STREET, DI SU WARD, MY HAO TOWN, HUNG YEN PROVINCE, Hung Yen Province, 160000", "country_code": "VN", "country_name": "Vietnam", "has_approved_claim": false, "is_closed": null}, {"os_id": "IT2019085WRBYK6", "lon": 12.4431844, "lat": 45.6374816, "name": "IDEA STAMPA S.R.L. UNIPERSONALE", "address": "VIA DELLE INDUSTRIE II, 52 MEOLO (VENEZIA) VENETO 30020", "country_code": "IT", "country_name": "Italy", "has_approved_claim": false, "is_closed": null}, {"os_id": "CA2019085E5WF1W", "lon": -73.6580767, "lat": 45.53797580000001, "name": "IMPRESSIONS CASEE INC.", "address": "9500 RUE MEILLEUR, SUTE 130 MONTREAL QUEBEC H2N 2B7", "country_code": "CA", "country_name": "Canada", "has_approved_claim": false, "is_closed": null}, {"os_id": "TW2019085HWKF1M", "lon": 120.1358346, "lat": 23.0585336, "name": "INJEXTECH INC.", "address": "407 BEN TIAN RD., SEC. 2, ANNAN DIST., TAINAN T'AI-WAN 71755", "country_code": "TW", "country_name": "Taiwan", "has_approved_claim": false, "is_closed": null}, {"os_id": "MX2019085Z6TXME", "lon": -99.5214385, "lat": 19.9750829, "name": "INOVA TEXTILES S.A. DE C.V.", "address": "EJE 3 Y 4 LOTE, 10 Y 11 PARQUE INDUSTRIAL DE JILOTEPEC JILOTEPEC ESTADO DE MEXICO 54240", "country_code": "MX", "country_name": "Mexico", "has_approved_claim": true, "is_closed": null}, {"os_id": "PK20190913BBJ2Y", "lon": 73.278021, "lat": 31.4903319, "name": "Interloop Ltd HD 2", "address": "7 Km Khurrianwala Jaranwala Road Khurrianwala Faisalabad", "country_code": "PK", "country_name": "Pakistan", "has_approved_claim": true, "is_closed": null}, {"os_id": "ES2020114H6XWYG", "lon": -3.7868307, "lat": 37.1930851, "name": "IRUNA COMUNICACI\u00d3N TEXTIL - SERISUR", "address": "POLIGONO INDUSTRIAL LA ROSA V, CHAUCHINA-GRANADA, ANDALUC\u00cdA, 18330, SPAIN", "country_code": "ES", "country_name": "Spain", "has_approved_claim": false, "is_closed": null}, {"os_id": "CN2022065QGPTMD", "lon": 112.966, "lat": 22.7631999, "name": "ISA INDUSTRIAL CO LTD (HESHAN) (CHINA)", "address": "No  1 Xingli Road Hecheng Town, Heshan, Guangdong, 529700", "country_code": "CN", "country_name": "China", "has_approved_claim": false, "is_closed": null}, {"os_id": "VN2022065TD5EZE", "lon": 106.556281, "lat": 11.08985, "name": "ISA INDUSTRIAL CO LTD (VIETNAM)", "address": "LOT M2 M3 VIET HUONG 2 INDUSTRIAL ZONE AN TAY VILLAGE , Binh Duong, B\u00ecnh Duong, 75000", "country_code": "VN", "country_name": "Vietnam", "has_approved_claim": false, "is_closed": null}, {"os_id": "IT2020053XCJKZP", "lon": 9.1014856, "lat": 45.6909885, "name": "Isa S.p.a.", "address": "statale dei giovi 251 Lentate sul Seveso Monza e della Brianza ", "country_code": "IT", "country_name": "Italy", "has_approved_claim": false, "is_closed": null}, {"os_id": "CN20220653ENC0M", "lon": 112.44653, "lat": 22.38526, "name": "ITW Graphics-Enping", "address": "PuQiao Economic Industry Develop District Shahu Town, Enping, Guangdong, 529400", "country_code": "CN", "country_name": "China", "has_approved_claim": false, "is_closed": null}, {"os_id": "CN2019085T675H7", "lon": 112.478871, "lat": 22.337826, "name": "ITW SPORTS BRANDING ENPING", "address": "PUQIAO ECONOMIC INDUSTRY DEVELOP DISTRICT ENPING GUANGDONG 0", "country_code": "CN", "country_name": "China", "has_approved_claim": false, "is_closed": null}, {"os_id": "EG202113988SB3N", "lon": 29.9187387, "lat": 31.2000924, "name": "JADE APPAREL INDUSTRIES", "address": "3RD INDUSTRIAL ZONE - AREA 06 BLOCK 10, ALEXANDRIA / BORG EL ARAB, AI ISKANDARIYAH", "country_code": "EG", "country_name": "Egypt", "has_approved_claim": false, "is_closed": null}, {"os_id": "TW2019093W3WY1X", "lon": 120.5827201, "lat": 23.8992037, "name": "JADE LONG JOHN", "address": "NO.350, FUXING RD. CHANGHUA SHE-TOU SHANG 510", "country_code": "TW", "country_name": "Taiwan", "has_approved_claim": false, "is_closed": null}, {"os_id": "EG20190859A72EF", "lon": 31.7423434, "lat": 30.2926655, "name": "JADE TEXTILE EGYPT", "address": "A-6 ZONE, 103-104 10TH OF RAMADAN CITY SHARKIYYA", "country_code": "EG", "country_name": "Egypt", "has_approved_claim": false, "is_closed": null}, {"os_id": "EG202113917WY99", "lon": 32.2040922, "lat": 30.6017375, "name": "JADE TEXTILE ISMAILIA S.A.E", "address": "200 ACRES EL-MOSTAKBEL ARE-ISMAILIA PUBLIC FREE ZONE, ISMAILIA, AI ISMA ILIYAH", "country_code": "EG", "country_name": "Egypt", "has_approved_claim": false, "is_closed": null}, {"os_id": "VN2019087S6E5CX", "lon": 106.691626, "lat": 20.9050807, "name": "Jasan Socks Viet Nam Co., Ltd", "address": "No 2, Road 17, Vsip Hai Phong Township, Industrial & Service Park', Thuy Trieu ward, Thuy Nguyen district, Hai Phong City.", "country_code": "VN", "country_name": "Vietnam", "has_approved_claim": false, "is_closed": null}, {"os_id": "CN2019083JNMWTS", "lon": 113.264385, "lat": 23.12911, "name": "Jiangsu Asian Sourcing Headwear Manufacturing Co., Ltd.", "address": "No. 2  South Guangzhou Road Economic And Technology Development Zone Huai An Jiangsu", "country_code": "CN", "country_name": "China", "has_approved_claim": false, "is_closed": null}, {"os_id": "CN201908579W8KH", "lon": 119.2608545, "lat": 33.781103, "name": "JIANGSU HONGBAO SPORTING GOODS CO., LTD", "address": "NO. 3 BUILDING SHANGSHUI INDUST HUAIAN JIANGSU 223400", "country_code": "CN", "country_name": "China", "has_approved_claim": false, "is_closed": null}, {"os_id": "CN20190852Z42M5", "lon": 119.5764627, "lat": 32.3177884, "name": "JIANGSU JINHUBAO GARMENT CO., LTD", "address": "LIDIAN TOWN, HANJIANG DISTRICT YANGZHOU JIANGSU 225106", "country_code": "CN", "country_name": "China", "has_approved_claim": false, "is_closed": null}, {"os_id": "CN2019085EQYTEN", "lon": 120.394519, "lat": 31.759888, "name": "JIANGSU XIAYUNFEI GARMENT CO., LTD.", "address": "8 JINZHUANG ROAD ZHUTANG TOWN JIANGYIN JIANGSU 214400", "country_code": "CN", "country_name": "China", "has_approved_claim": false, "is_closed": null}, {"os_id": "CN20190856G05MS", "lon": 115.9553592, "lat": 28.4411358, "name": "JIANGXI GUANGYOU SHOETOWN FOOTWEAR CO., LTD.", "address": "ZHANQIAN ROAD, XIANGTANG TOWN NANCHANG COUNTY NANCHANG CITY JIANGXI PROVINCE 330201", "country_code": "CN", "country_name": "China", "has_approved_claim": false, "is_closed": null}, {"os_id": "CN2021139PZ7BDQ", "lon": 120.9545576, "lat": 30.7827428, "name": "JIANSHAN BENHUI PRINTING CO  LTD", "address": "239 YUNSI ROAD, DAYUN TOWN, JIASHAN ZHEJIANG, JIAXING, ZHEJIANG", "country_code": "CN", "country_name": "China", "has_approved_claim": false, "is_closed": null}, {"os_id": "CN20190856K66XC", "lon": 120.8250787, "lat": 30.8021748, "name": "JIAXING KANAAN BAG R&D CO.,LTD", "address": "QIXING INDUSTRIAL ZONE, XIUCHENG JIAXIANG ZHEJIANG 314002", "country_code": "CN", "country_name": "China", "has_approved_claim": false, "is_closed": null}, {"os_id": "CN2019085YKWGNW", "lon": 121.08105, "lat": 30.819696, "name": "JIAXING QUANG VIET GARMENT CO. LTD.", "address": "PINGXINGXIAN TONGXINDUAN 318 XINDAI TOWN PING HU ZHEJIANG 314211", "country_code": "CN", "country_name": "China", "has_approved_claim": false, "is_closed": null}, {"os_id": "CN2020114ZQ69RR", "lon": 116.4678923, "lat": 35.7217841, "name": "JINING YONGJIN SHOES CO., LTD.", "address": "NO.456 OF E MEI SHAN ROAD,ZHONGDU STREET,WENSHANG TOWN., JI NING CITY, SHANDONG, 272500, CHINA", "country_code": "CN", "country_name": "China", "has_approved_claim": false, "is_closed": null}, {"os_id": "LK2019085ND82HD", "lon": 80.4216634, "lat": 7.6938926, "name": "JK  GARMENTS  (PVT)  LTD", "address": "MADAGALLA ROAD,  IBBAGAMUWA, KURUNEGALA, SRI  LANKA KURUNEGALA NORTH  WESTURN 60500", "country_code": "LK", "country_name": "Sri Lanka", "has_approved_claim": false, "is_closed": null}, {"os_id": "KR2022065ESDR4Y", "lon": 129.0756416, "lat": 35.1795543, "name": "JOONGANG DYEING FABRIC CO., LTD", "address": "17 Hasinbeonyeong ro, Busan, Busan Gwangyeogsi, 49432", "country_code": "KR", "country_name": "Korea, Republic of", "has_approved_claim": false, "is_closed": null}, {"os_id": "KR2022065PWRYC2", "lon": 128.9711884, "lat": 35.0746978, "name": "JOONGANG TEXTILE CO LTD (WARP/WEFT KNIT)", "address": "15 Dadae ro 320beon gil, Busan, Busan Gwangyeogsi, 49469", "country_code": "KR", "country_name": "Korea, Republic of", "has_approved_claim": false, "is_closed": null}, {"os_id": "CN2022065MS2M9E", "lon": 121.143, "lat": 31.01187, "name": "JOV GARMENT ACCESSORIAL MATERIAL CO., LTD", "address": "No 226 Pengfeng Road Dakun Industrial Zone , Songjiang, Shanghai, 201600", "country_code": "CN", "country_name": "China", "has_approved_claim": false, "is_closed": null}, {"os_id": "KR2019085QZJ503", "lon": 127.0315457, "lat": 37.6208759, "name": "JSI", "address": "1746-1, SONGJUNG-DONG, BUSAN BUSAN 0", "country_code": "KR", "country_name": "Korea, Republic of", "has_approved_claim": false, "is_closed": null}, {"os_id": "VN2022066F03MKF", "lon": 106.345775, "lat": 11.1300694, "name": "JSI VINA CORPORATION.", "address": "LOT NO 45-18-2, ROAD N14 PHUOC DONG INDUSTRIAL PARK PHUOC DONG COMMUNE, TAY NINH, 716509", "country_code": "VN", "country_name": "Vietnam", "has_approved_claim": false, "is_closed": null}, {"os_id": "GE2022065E7EG0G", "lon": 44.76994879999999, "lat": 41.7373668, "name": "Kartli Textile Ltd", "address": "20 Gagarini street, Rustavi, Tbilisi, 3700", "country_code": "GE", "country_name": "Georgia", "has_approved_claim": false, "is_closed": null}, {"os_id": "US2019085E8MKNK", "lon": -122.7672113, "lat": 45.4263349, "name": "KIM'S EMBROIDERY, INC.", "address": "8770 SW BURNHAM STREET PO PORTLAND OREGON 97223", "country_code": "US", "country_name": "United States", "has_approved_claim": false, "is_closed": null}, {"os_id": "TW2019085KZKG0S", "lon": 120.5624474, "lat": 24.0716583, "name": "KING RAY YENG INDUSTRIAL CO., LTD", "address": "NO.27, ALLEY 27, LANE 194, CHANGSHUI ROAD CHANGHWA T'AI-WAN 50071", "country_code": "TW", "country_name": "Taiwan", "has_approved_claim": false, "is_closed": null}, {"os_id": "JP20190854KBBYY", "lon": 135.7035546, "lat": 34.5551827, "name": "KITAI  CO., LTD", "address": "32 TAKA KASHIBA NARA 639-0241", "country_code": "JP", "country_name": "Japan", "has_approved_claim": false, "is_closed": null}, {"os_id": "KH20190852KCDF9", "lon": 102.9503898, "lat": 11.6239544, "name": "KKN APPAREL CO., LTD", "address": "NEANG KOK VILLAGE. PAKKLONG. COMMUNE. MOND/AL SEYMA NEANG KOK VILLAGE KAOH KONG ", "country_code": "KH", "country_name": "Cambodia", "has_approved_claim": false, "is_closed": null}, {"os_id": "US201908555TME7", "lon": -117.408729, "lat": 47.680256, "name": "K-L MFG. CO., INC.", "address": "2438 NORTH RUBY STREET SPOKANE WASHINGTON 99207", "country_code": "US", "country_name": "United States", "has_approved_claim": false, "is_closed": null}, {"os_id": "CN2019085ZKEE6Y", "lon": 121.0323515, "lat": 31.3209833, "name": "KUNSHAN SABRINA CLOTHES MAKING CO., LTD.", "address": "NO.31 KONGXIANG EAST ROAD LUJIA TOWN KUNSHAN JIANGSU 215331", "country_code": "CN", "country_name": "China", "has_approved_claim": false, "is_closed": null}, {"os_id": "VN2020053CFDT5Q", "lon": 106.933437, "lat": 10.716938, "name": "Kuo Yuen Industrial Vietnam Ltd.", "address": "KCN NHON TRACH 3 HUYEN NHON TRACH TINH DONG NAI VIET NAM Nhon Trach Dong Nai Province 810000", "country_code": "VN", "country_name": "Vietnam", "has_approved_claim": false, "is_closed": null}, {"os_id": "CN20200537GPASD", "lon": 113.992638, "lat": 22.877538, "name": "Kuo Yuen Tannery", "address": "YUE YUEN INDUSTRIAL PARK HUANG JIANG TOWN Dongguan Guangdong ", "country_code": "CN", "country_name": "China", "has_approved_claim": false, "is_closed": null}, {"os_id": "CN202206533CXP7", "lon": 114.003561, "lat": 22.915278, "name": "KUO YUEN (TR1) (CHINA)", "address": "NO 2 Jing Cheng 2 Road Huang Jiang Dong Guan China, Dongguan, Guangdong, 500711", "country_code": "CN", "country_name": "China", "has_approved_claim": false, "is_closed": null}, {"os_id": "CN2022065A3BGMY", "lon": 120.76608, "lat": 30.77139, "name": "KURARAY CO LTD (CLARINO) (TR1) (TR1) (CHINA)", "address": "NO 1568 Dongfang Road Jiaxing, Jiaxing Zhejiang, Zhejiang", "country_code": "CN", "country_name": "China", "has_approved_claim": false, "is_closed": null}, {"os_id": "JP20220655M92YD", "lon": 133.9560865, "lat": 34.6088501, "name": "KURARAY CO LTD (CLARINO) (TR1) (TR1) (TAIWAN)", "address": "1 2 1  Kaigan dori  Minami ku, Osaka, Okayama, 7028601", "country_code": "JP", "country_name": "Japan", "has_approved_claim": false, "is_closed": null}, {"os_id": "VN2022065TVVV33", "lon": 106.7251325, "lat": 10.9298042, "name": "KURARAY CO LTD (CLARINO) (TR1) (VIETNAM)", "address": "NO 9 8TH STREET VSIP THUAN AN DISTRICT, THUAN AN CITY, B\u00ecnh Duong, 75200", "country_code": "VN", "country_name": "Vietnam", "has_approved_claim": false, "is_closed": null}, {"os_id": "VN20190855K30SH", "lon": 106.7131442, "lat": 10.9642212, "name": "KWAN TAT VIETNAM CO. LTD", "address": "E3-25A KDC THUAN GIAO H THUAN AN BINH DUONG 70000", "country_code": "VN", "country_name": "Vietnam", "has_approved_claim": false, "is_closed": null}, {"os_id": "US2019085KNEG5C", "lon": -122.6395075, "lat": 45.5814875, "name": "LATITUDES", "address": "2425 NE RIVERSIDE WAY PORTLAND OREGON 97211", "country_code": "US", "country_name": "United States", "has_approved_claim": false, "is_closed": null}, {"os_id": "VN20211591D86N9", "lon": 106.729938, "lat": 10.897562, "name": "LEADING STAR VIET NAM GARMENT JOINT STOCK COMPANY", "address": "Lot C, Road No. 3, Dong An IP, Binh Hoa Ward,Thuan An City, Binh Duong Province, Vietnam, Thuan An", "country_code": "VN", "country_name": "Vietnam", "has_approved_claim": false, "is_closed": null}, {"os_id": "CN2021139GYEJJ3", "lon": 113.443885, "lat": 22.348559, "name": "LEAGUE OPTICAL CENTER", "address": "NO. 24, XIAOLANGHUAN ROAD, SANXIANG TOWN, ZHONGSHAN , GUANGDONG", "country_code": "CN", "country_name": "China", "has_approved_claim": false, "is_closed": null}, {"os_id": "CN2022065E96TSJ", "lon": 113.44142, "lat": 22.3579799, "name": "League Optical(Zhongshan) Workshop Limited", "address": "Yaguan building 3, Zhongshan , Guangdong, 528463", "country_code": "CN", "country_name": "China", "has_approved_claim": false, "is_closed": null}, {"os_id": "MX2019085WDCMX4", "lon": -109.9127378, "lat": 27.4495427, "name": "LEOTEX TEXTILE, S.A. DE C.V.", "address": "BLVD. C.T.M. S/N CD. OBREGON SONORA 85097", "country_code": "MX", "country_name": "Mexico", "has_approved_claim": false, "is_closed": null}, {"os_id": "TW2019085K2M13H", "lon": 120.5409089, "lat": 23.7077947, "name": "LI CHENG ENTERPRISE CO.,LTD", "address": "NO.5 DOU-KUNG 12 ROAD.,DOU-LIU CITY, YUN-LIN HSIEN", "country_code": "TW", "country_name": "Taiwan", "has_approved_claim": false, "is_closed": null}, {"os_id": "IT2019085EV9DK8", "lon": 11.485871, "lat": 45.226431, "name": "LIM GROUP SRL", "address": "VIA FRASSENARA, 21 ITALY VENETO", "country_code": "IT", "country_name": "Italy", "has_approved_claim": false, "is_closed": null}, {"os_id": "LK201908536XJKV", "lon": 80.2146, "lat": 7.272909, "name": "LINEA  AITC", "address": "MAS FABRIC PARK, KURUNEGALA RD, THULHIRIYA SABARAGAMUWA KE 71610", "country_code": "LK", "country_name": "Sri Lanka", "has_approved_claim": false, "is_closed": null}, {"os_id": "CN2019085RCHQ4T", "lon": 113.8483942, "lat": 22.7166937, "name": "LION BROTHERS FAR EAST", "address": "NO. 62, UPPER NORTH LANE 4, SHANGNAN INDUSTRIAL ZONE BAOAN GUANGDONG 518125", "country_code": "CN", "country_name": "China", "has_approved_claim": false, "is_closed": null}, {"os_id": "US201908567E3RQ", "lon": -77.0987344, "lat": 38.80810839999999, "name": "LOGO CAPITAL", "address": "3925 WHEELER AVENUE ALEXANDRIA VIRGINIA 22304", "country_code": "US", "country_name": "United States", "has_approved_claim": false, "is_closed": null}, {"os_id": "VN20190850M2PBM", "lon": 106.40513, "lat": 10.5383411, "name": "LONG AN EXPORT GARMENT JOINT STOCK COMPANY (LASGE)", "address": "1ST NATIONAL ROAD, 4TH QUARTER TAN AN LONG AN 84-72", "country_code": "VN", "country_name": "Vietnam", "has_approved_claim": false, "is_closed": null}, {"os_id": "CN2019085T9B6ZX", "lon": 115.2407022, "lat": 24.1044154, "name": "LONG CHUAN SIMONA FOOTWEAR CO. LTD", "address": "XIN CHENG LONG CHUAN HEYUAN GUANGDONG 517300", "country_code": "CN", "country_name": "China", "has_approved_claim": false, "is_closed": null}, {"os_id": "CN20190854SAW9P", "lon": 115.7627355, "lat": 23.9397461, "name": "LONGCHUAN SOMONA FOOTWEAR CO.,LTD WUHUA BRANCH", "address": "SHUIZHAI INDUSTRY GARDEN MEIZHOU GUANGDONG 514400", "country_code": "CN", "country_name": "China", "has_approved_claim": false, "is_closed": null}, {"os_id": "CN2019085YHQT5F", "lon": 114.115969, "lat": 23.123441, "name": "LONG FA SHOES INDUSTRIAL (HUIZHOU) CO., LTD.", "address": "LONGTING INDUS. PARK, LONGXI TOWN, BOLUO COUNTY HUIZHOU GUANGDONG 516121", "country_code": "CN", "country_name": "China", "has_approved_claim": false, "is_closed": null}, {"os_id": "VN2019085H570TM", "lon": 106.4170311, "lat": 10.8701029, "name": "LONGWAY VIETNAM COMPANY LIMITED", "address": "LOT HC1,ROUTE 3, XUY\u00caN A INDUSTRIAL ZONE DUC HOA LONG AN 863900", "country_code": "VN", "country_name": "Vietnam", "has_approved_claim": false, "is_closed": null}, {"os_id": "VN2022065XF5XY1", "lon": 107.1395903, "lat": 10.9413749, "name": "Longwell Vietnam", "address": "Dau Giay Industrial Park, Huyen Thong Nhat, \u00d0ng Nai, 81000", "country_code": "VN", "country_name": "Vietnam", "has_approved_claim": false, "is_closed": null}, {"os_id": "CN2019085F36V41", "lon": 114.1114798, "lat": 23.1012587, "name": "LONG YUE SHOES INDUSTRIAL  (HUI  ZHOU)CO.,LTD.", "address": "LONGTING INDUS.PARK, LONGQIAO AVENUE,LONGXI TOWN, BOLUO COUNTY HUIZHOU GUANGDONG 516000", "country_code": "CN", "country_name": "China", "has_approved_claim": false, "is_closed": null}, {"os_id": "AR20220651H1NN1", "lon": -58.52119680000001, "lat": -34.5562317, "name": "Loocks Empresarial sa", "address": "SARGENTO CABRAL 1071 VILLA MAIPU, San Martin, Buenos Aires, B1650", "country_code": "AR", "country_name": "Argentina", "has_approved_claim": false, "is_closed": null}, {"os_id": "IT20190857S0ANN", "lon": 11.117638, "lat": 44.714127, "name": "LORENA CONFEZIONI", "address": "VIA CONFINE N. 2111 RAVARINO EMILIA-ROMAGNA 41017", "country_code": "IT", "country_name": "Italy", "has_approved_claim": false, "is_closed": null},